fips_code,name,lng,lat
01059,Franklin,-87.843283,34.44238135
13111,Fannin,-84.31929617,34.86412558
19109,Kossuth,-94.20689787,43.20413984
40115,Ottawa,-94.81058917,36.83587796
42115,Susquehanna,-75.80090451,41.82127676
40053,Grant,-97.78493404,36.79651364
31029,Chase,-101.6979407,40.52371008
29213,Taney,-93.04127586,36.65473646
32510,Carson City,-119.7473502,39.15108405
12049,Hardee,-81.80953792,27.49319733
05023,Cleburne,-92.02725586,35.53853919
48017,Bailey,-102.8298267,34.06860316
49037,San Juan,-109.8043936,37.62607487
31143,Polk,-97.56825226,41.18687055
42075,Lebanon,-76.45759104,40.36716938
35028,Los Alamos,-106.3065081,35.86926339
40137,Stephens,-97.85148899,34.48542286
40081,Lincoln,-96.88123961,35.7027284
19031,Cedar,-91.13246684,41.77233777
19069,Franklin,-93.26256925,42.73270384
20151,Pratt,-98.73915959,37.6478469
28099,Neshoba,-89.11732685,32.7532893
29167,Polk,-93.40034649,37.61649452
27101,Murray,-95.76328482,44.02216709
29121,Macon,-92.56453089,39.83049768
55039,Fond du Lac,-88.48885325,43.75354908
47169,Trousdale,-86.15630295,36.39236244
51683,Manassas,-77.48515474,38.7478445
48329,Midland,-102.0315682,31.86904128
48251,Johnson,-97.36618817,32.3788142
48171,Gillespie,-98.94676915,30.31824095
55137,Waushara,-89.24316913,44.11328215
04015,Mohave,-113.7581706,35.70456821
12015,Charlotte,-81.91185513,26.90579274
20039,Decatur,-100.4593928,39.78469039
21057,Cumberland,-85.38857248,36.78661047
46097,Miner,-97.60992207,44.02197882
41033,Josephine,-123.5552595,42.36551155
41015,Curry,-124.1560919,42.45776177
35006,Cibola,-107.9992972,34.91240949
26001,Alcona,-83.59385271,44.68477825
06105,Trinity,-123.1126773,40.65059444
01103,Morgan,-86.85325062,34.45331009
31159,Seward,-97.13966029,40.8724014
40153,Woodward,-99.26427063,36.42251383
39063,Hancock,-83.66630827,41.00178146
36057,Montgomery,-74.43985937,42.90217659
18139,Rush,-85.46543335,39.62002576
29139,Montgomery,-91.47020839,38.94128519
20097,Kiowa,-99.28576492,37.55841651
28117,Prentiss,-88.51976883,34.61811436
17189,Washington,-89.41050166,38.35241923
72029,Canvanas,-65.88710242,18.33030521
31171,Thomas,-100.5556632,41.91358968
29017,Bollinger,-90.02562128,37.3219182
13149,Heard,-85.12848262,33.296853
48085,Collin,-96.57266803,33.18822716
48107,Crosby,-101.3000364,33.61431553
48081,Coke,-100.5295971,31.88933528
21171,Monroe,-85.71679611,36.71217333
12003,Baker,-82.28452499,30.3309289
20089,Jewell,-98.21822331,39.7847206
26017,Bay,-83.99005144,43.70716549
37153,Richmond,-79.74711644,35.00590629
29023,Butler,-90.40672985,36.71638784
27105,Nobles,-95.75326093,43.67428858
23001,Androscoggin,-70.20524042,44.16543634
51735,Poquoson,-76.35566972,37.1307115
01013,Butler,-86.68040924,31.75252432
37003,Alexander,-81.17692946,35.92074753
37063,Durham,-78.87606872,36.03605321
38027,Eddy,-98.90182925,47.71748723
36093,Schenectady,-74.05833636,42.81832249
27079,Le Sueur,-93.72984216,44.37144158
29055,Crawford,-91.30516204,37.97649081
28107,Panola,-89.95079634,34.3639856
72093,Maricao,-66.94265627,18.1724996
72075,Juana Daz,-66.49544792,18.05157356
19027,Carroll,-94.86032705,42.03617207
19075,Grundy,-92.7914653,42.40195716
28131,Stone,-89.11764244,30.7900413
46003,Aurora,-98.56175096,43.7180875
29173,Ralls,-91.52194283,39.5275593
48433,Stonewall,-100.2538401,33.17906744
04005,Coconino,-111.7705493,35.83875351
08081,Moffat,-108.2075581,40.61858161
18141,St. Joseph,-86.29001543,41.61670349
05095,Monroe,-91.20394825,34.67772323
39037,Darke,-84.61945793,40.13381861
28003,Alcorn,-88.57997736,34.88083218
02105,Hoonah-Angoon,-135.6386611,58.28575804
12067,Lafayette,-83.18086561,29.98555842
02290,Yukon-Koyukuk,-151.3897031,65.50922918
51590,Danville,-79.40912354,36.58309677
40063,Hughes,-96.25062134,35.04854478
38047,Logan,-99.47712748,46.45733694
39077,Huron,-82.59842269,41.14651716
39021,Champaign,-83.76966912,40.13766698
31053,Dodge,-96.6539044,41.57781563
31097,Johnson,-96.26520163,40.39252282
19165,Shelby,-95.31015553,41.6850066
19197,Wright,-93.73515113,42.73305373
21061,Edmonson,-86.23847919,37.20904677
26057,Gratiot,-84.60482908,43.29296993
72045,Comero,-66.22191082,18.223828
56025,Natrona,-106.7988764,42.96194049
20163,Rooks,-99.3248686,39.35022485
48153,Floyd,-101.3031546,34.07227468
48227,Howard,-101.4356444,32.30621324
48319,Mason,-99.22629725,30.7177995
51600,Fairfax,-77.29836489,38.8534472
51530,Buena Vista,-79.35459481,37.73052263
72119,Ro Grande,-65.81320794,18.34790658
12099,Palm Beach,-80.46503899,26.64741122
18171,Warren,-87.35336964,40.34704622
20187,Stanton,-101.7842716,37.56304856
02180,Nome,-164.0315808,64.91040617
39085,Lake,-81.23712921,41.69689265
37181,Vance,-78.40836693,36.36465914
30089,Sanders,-115.1333094,47.67490166
28039,George,-88.64422567,30.86260363
31083,Harlan,-99.40436605,40.17656663
02122,Kenai Peninsula,-151.5611779,60.2537748
13003,Atkinson,-82.88008089,31.29704319
51081,Greensville,-77.55962422,36.67571583
55065,Lafayette,-90.13189524,42.66021077
39121,Noble,-81.45612561,39.7660752
27057,Hubbard,-94.91640615,47.10785166
18101,Martin,-86.80307723,38.7079435
15009,Maui,-156.5692176,20.86402572
19025,Calhoun,-94.64046046,42.38521079
19187,Webster,-94.18176099,42.42794934
20067,Grant,-101.3079758,37.56227336
28129,Smith,-89.50664426,32.01792861
17005,Bond,-89.43566372,38.88688243
72153,Yauco,-66.8582991,18.08109137
29059,Dallas,-93.02340823,37.68065861
31183,Wheeler,-98.52795068,41.91485543
26075,Jackson,-84.42251355,42.24852059
48269,King,-100.2558057,33.61643847
48497,Wise,-97.65458625,33.215766
51678,Lexington,-79.44575305,37.78179822
36015,Chemung,-76.75989461,42.14122122
48279,Lamb,-102.3516289,34.06859623
51790,Staunton,-79.05960219,38.15909322
01003,Baldwin,-87.72274477,30.72782468
05113,Polk,-94.2279123,34.48595315
06079,San Luis Obispo,-120.4042917,35.38707354
18047,Franklin,-85.06053013,39.41429175
21191,Pendleton,-84.36004407,38.69570469
40129,Roger Mills,-99.69538847,35.68852706
38017,Cass,-97.24822334,46.93292237
37157,Rockingham,-79.77527984,36.39621434
35015,Eddy,-104.3041733,32.47155056
27109,Olmsted,-92.40209709,44.00380771
06089,Shasta,-122.0409443,40.76391106
18013,Brown,-86.22810056,39.19645662
05065,Izard,-91.91279069,36.09526565
55075,Marinette,-88.03335785,45.38289899
31141,Platte,-97.52073009,41.57115154
31005,Arthur,-101.6959559,41.56896142
35057,Torrance,-105.8505392,34.64043207
26129,Ogemaw,-84.12710722,44.33486043
19087,Henry,-91.54434433,40.98760854
19175,Union,-94.24234847,41.0277278
27007,Beltrami,-94.93765473,47.97364569
27085,McLeod,-94.27237288,44.82372142
72054,Florida,-66.5598922,18.37330319
31081,Hamilton,-98.02280046,40.87318318
19067,Floyd,-92.78940097,43.0600053
20205,Wilson,-95.74323255,37.55937174
55035,Eau Claire,-91.28609183,44.726614
48135,Ector,-102.5429428,31.86898877
48507,Zavala,-99.76049166,28.86623446
72099,Moca,-67.08090202,18.37783653
46043,Douglas,-98.36606932,43.38705519
08125,Yuma,-102.4246098,40.00284508
13119,Franklin,-83.2291908,34.37559112
20189,Stevens,-101.3119048,37.19230822
21083,Graves,-88.65114084,36.72303717
42001,Adams,-77.21807609,39.87146641
46013,Brown,-98.35163367,45.58993475
28095,Monroe,-88.48037059,33.8922846
29209,Stone,-93.45602697,36.74710976
27043,Faribault,-93.94781493,43.67387282
02050,Bethel,-159.8255997,60.91342739
19137,Montgomery,-95.15642896,41.03018714
01021,Chilton,-86.71887934,32.84771004
31009,Blaine,-99.97677845,41.91311716
39113,Montgomery,-84.29037841,39.75442102
39047,Fayette,-83.4560853,39.56023827
40073,Kingfisher,-97.94153042,35.94535722
18117,Orange,-86.49522904,38.5412136
19147,Palo Alto,-94.67824621,43.08193849
19047,Crawford,-95.3819718,42.03718237
17107,Logan,-89.36775244,40.12467469
26035,Clare,-84.84810751,43.9879198
18081,Johnson,-86.10174496,39.4899568
27083,Lyon,-95.83918761,44.41338502
26165,Wexford,-85.5781774,44.33841768
55027,Dodge,-88.70770995,43.41581374
18137,Ripley,-85.2624907,39.10311351
18041,Fayette,-85.17841116,39.63983379
72115,Quebradillas,-66.92632992,18.44045509
48021,Bastrop,-97.31201625,30.10367452
51580,Covington,-79.98671944,37.77830014
51540,Charlottesville,-78.48233004,38.03742163
48149,Fayette,-96.91986981,29.87663549
48159,Franklin,-95.21903806,33.17532732
46045,Edmunds,-99.21540939,45.41847898
04012,La Paz,-113.981207,33.7291609
16009,Benewah,-116.6586207,47.21772961
24510,Baltimore,-76.61440436,39.30522045
42105,Potter,-77.89566563,41.74480517
47069,Hardeman,-88.99308826,35.2067611
26023,Branch,-85.05923475,41.91588904
13173,Lanier,-83.06330638,31.03799605
19081,Hancock,-93.73454884,43.08178477
13169,Jones,-83.56057299,33.0254599
36109,Tompkins,-76.47381763,42.45222263
36053,Madison,-75.66993538,42.91279676
19019,Buchanan,-91.83745828,42.47108244
19123,Mahaska,-92.64083907,41.33521502
20031,Coffey,-95.73407587,38.23677253
19125,Marion,-93.09934783,41.33445101
17095,Knox,-90.2133034,40.93148779
29211,Sullivan,-93.11159068,40.21033053
27095,Mille Lacs,-93.62993103,45.9373852
12119,Sumter,-82.08128977,28.70520781
19179,Wapello,-92.40954728,41.03064984
16085,Valley,-115.5662454,44.76650867
28035,Forrest,-89.25794407,31.18899065
17079,Jasper,-88.15377894,39.01061641
46073,Jerauld,-98.62965972,44.06637798
55141,Wood,-90.0416185,44.45535331
48233,Hutchinson,-101.3546643,35.84006574
72059,Guayanilla,-66.79209227,18.03985751
48265,Kerr,-99.34928454,30.06116361
38031,Foster,-98.88279923,47.4571084
48425,Somervell,-97.77458843,32.22235362
48205,Hartley,-102.6029352,35.84008345
48079,Cochran,-102.8285179,33.60426094
48131,Duval,-98.50873333,27.68142846
48145,Falls,-96.93634455,31.25354356
27019,Carver,-93.8027205,44.82089558
46125,Turner,-97.14865776,43.3109081
28081,Lee,-88.68047663,34.28973933
31149,Rock,-99.44982378,42.42142393
51595,Emporia,-77.53622483,36.69543863
18045,Fountain,-87.24192118,40.12120145
72069,Humacao,-65.81103116,18.14521821
38013,Burke,-102.5181759,48.79096757
48375,Potter,-101.893964,35.40133773
18099,Marshall,-86.26180055,41.3248735
47015,Cannon,-86.06179619,35.80842943
18113,Noble,-85.41741162,41.39835527
48069,Castro,-102.2617081,34.53004051
37007,Anson,-80.10243931,34.97378348
19135,Monroe,-92.8690667,41.02988815
06005,Amador,-120.651296,38.44638702
16059,Lemhi,-113.9335998,44.9436279
19141,O'Brien,-95.62474725,43.0836202
16075,Payette,-116.7604309,44.00714137
17115,Macon,-88.96174804,39.85999062
17117,Macoupin,-89.92459485,39.26136043
37195,Wilson,-77.9189122,35.70531169
17123,Marshall,-89.34481931,41.03327407
19003,Adams,-94.69932645,41.02903567
54077,Preston,-79.6682145,39.46929522
19011,Benton,-92.06463573,42.08011739
47023,Chester,-88.61425832,35.42206909
56027,Niobrara,-104.4755961,43.05616954
51089,Henry,-79.87418576,36.68267428
55131,Washington,-88.23041319,43.36887792
30069,Petroleum,-108.2504732,47.11768458
27117,Pipestone,-96.258643,44.02300689
51099,King George,-77.15723124,38.27358126
27031,Cook,-90.53150846,47.90304185
42047,Elk,-78.64916765,41.42548728
27147,Steele,-93.22627088,44.02240351
27153,Todd,-94.89728962,46.07014445
29057,Dade,-93.8503345,37.431814
42053,Forest,-79.23591856,41.51230258
47001,Anderson,-84.19904346,36.11862903
16039,Elmore,-115.4691486,43.35417471
20057,Ford,-99.88814767,37.69182131
20093,Kearny,-101.3203923,38.00024973
13247,Rockdale,-84.02657025,33.65414105
31045,Dawes,-103.1354423,42.72007965
41047,Marion,-122.5849114,44.90322354
48111,Dallam,-102.6021107,36.27789187
18145,Shelby,-85.79146519,39.52312646
42079,Luzerne,-75.98893638,41.17686973
29117,Livingston,-93.54864835,39.78202789
29125,Maries,-91.92492582,38.16167922
27161,Waseca,-93.58720505,44.0220714
01111,Randolph,-85.45918107,33.29354361
26143,Roscommon,-84.61141537,44.33547916
36005,Bronx,-73.8615688,40.85091824
31085,Hayes,-101.0616334,40.52447865
31119,Madison,-97.60078361,41.9166434
38021,Dickey,-98.50488391,46.11017237
29109,Lawrence,-93.83291444,37.10627971
26015,Barry,-85.30834519,42.59513984
55059,Kenosha,-88.04209555,42.57659172
29141,Morgan,-92.88597122,38.42350791
26073,Isabella,-84.84664923,43.64060976
05031,Craighead,-90.63270647,35.8310138
02195,Petersburg,-132.9333517,57.11988808
02275,Wrangell,-132.0310434,56.32537949
31167,Stanton,-97.19394708,41.9169835
35047,San Miguel,-104.8156292,35.48004639
42113,Sullivan,-76.51238042,41.44598276
26109,Menominee,-87.55660994,45.58036988
39083,Knox,-82.42287375,40.39902351
39089,Licking,-82.48290477,40.09170112
38073,Ransom,-97.65742504,46.45621782
31011,Boone,-98.06703102,41.7067951
38103,Wells,-99.66092922,47.58750012
31069,Garden,-102.3353283,41.61911486
48191,Hall,-100.6813647,34.53073368
48193,Hamilton,-98.11083887,31.70470573
38043,Kidder,-99.78013842,46.98013909
19033,Cerro Gordo,-93.2612239,43.08177563
21033,Caldwell,-87.86831993,37.14556161
46025,Clark,-97.72949102,44.8584651
46039,Deuel,-96.66802862,44.76015949
46067,Hutchinson,-97.75456287,43.33466314
46079,Lake,-97.12926365,44.02193107
42021,Cambria,-78.71388554,40.49518786
48023,Baylor,-99.21352901,33.61640794
46047,Fall River,-103.5274481,43.23917478
46061,Hanson,-97.78704306,43.67458361
45037,Edgefield,-81.9661657,33.77224819
46099,Minnehaha,-96.7914546,43.67413367
53001,Adams,-118.5603559,46.98352425
42037,Columbia,-76.4051503,41.04903639
29085,Hickory,-93.32051495,37.94153217
55069,Lincoln,-89.73474025,45.33724242
51003,Albemarle,-78.55661903,38.02273165
31003,Antelope,-98.06660249,42.17696571
55089,Ozaukee,-87.95138777,43.38375913
29009,Barry,-93.82898627,36.70980207
55097,Portage,-89.50154548,44.47561378
48047,Brooks,-98.21866528,27.03154713
55033,Dunn,-91.89653391,44.94674851
55117,Sheboygan,-87.94566398,43.72108736
37151,Randolph,-79.8058818,35.71023333
20199,Wallace,-101.7637347,38.91690628
20011,Bourbon,-94.84924767,37.85500237
48093,Comanche,-98.55874953,31.94854859
48103,Crane,-102.5151699,31.4287137
26037,Clinton,-84.60138451,42.9439517
17029,Coles,-88.22141023,39.52086003
19077,Guthrie,-94.50111014,41.68378965
17037,DeKalb,-88.76979995,41.8933691
17041,Douglas,-88.21756136,39.7695478
20115,Marion,-97.09712874,38.35899873
21129,Lee,-83.71573518,37.59456493
48123,DeWitt,-97.35694033,29.08147376
26077,Kalamazoo,-85.53044157,42.24536002
21157,Marshall,-88.32927113,36.88327592
26081,Kent,-85.54918115,43.03204611
21173,Montgomery,-83.91291351,38.03256472
26107,Mecosta,-85.32464875,43.64070731
26117,Montcalm,-85.15230226,43.31058414
21181,Nicholas,-84.01542795,38.33536589
27047,Freeborn,-93.3488462,43.67383179
26133,Osceola,-85.32556471,43.98998373
17049,Effingham,-88.58969703,39.05935691
17053,Ford,-88.22313426,40.59686492
17047,Edwards,-88.05369238,38.41619684
21233,Webster,-87.68319621,37.51850288
48303,Lubbock,-101.8204789,33.61008596
40043,Dewey,-99.00647121,35.98768882
48349,Navarro,-96.47280759,32.04696933
19035,Cherokee,-95.62389402,42.73538914
19017,Bremer,-92.31795937,42.77461496
27093,Meeker,-94.52871063,45.12332877
48219,Hockley,-102.3431676,33.60771256
40105,Nowata,-95.61735986,36.79844119
39003,Allen,-84.10584177,40.77151716
27059,Isanti,-93.29470209,45.56125565
48413,Schleicher,-100.5384877,30.89734895
27165,Watonwan,-94.61413846,43.97823903
48429,Stephens,-98.83631615,32.73553157
36021,Columbia,-73.63186276,42.25016297
34023,Middlesex,-74.41108832,40.43949114
27121,Pope,-95.44454861,45.58611957
48345,Motley,-100.779722,34.07408766
29115,Linn,-93.10705251,39.870461
06071,San Bernardino,-116.1783784,34.84157876
13175,Laurens,-82.92233434,32.46355824
13133,Greene,-83.16678441,33.57887215
05123,St. Francis,-90.74840472,35.02180511
55085,Oneida,-89.52161421,45.70521979
55113,Sawyer,-91.14489019,45.87995292
02261,Valdez-Cordova,-144.5019516,61.54964404
46035,Davison,-98.14543668,43.67475843
27137,St. Louis,-92.46951183,47.60334656
12041,Gilchrist,-82.80043459,29.72600841
39133,Portage,-81.19736816,41.16790847
29061,Daviess,-93.98514508,39.96169076
29079,Grundy,-93.56516333,40.1140924
48049,Brown,-98.99881071,31.77417703
48209,Hays,-98.03105783,30.05810528
48235,Irion,-100.982439,31.30375559
48281,Lampasas,-98.2416756,31.19624807
53047,Okanogan,-119.7406032,48.54862984
13017,Ben Hill,-83.22027638,31.75972075
13277,Tift,-83.52652261,31.45751029
13065,Clinch,-82.7064204,30.91504263
51570,Colonial Heights,-77.39716266,37.26480119
37081,Guilford,-79.78852575,36.07964464
29177,Ray,-93.98990821,39.35287295
51640,Galax,-80.91646065,36.66735897
51670,Hopewell,-77.2969381,37.29122918
51685,Manassas Park,-77.44401094,38.7704423
20173,Sedgwick,-97.46083703,37.68448116
06053,Monterey,-121.2387503,36.21711865
19013,Black Hawk,-92.30867416,42.47009403
20023,Cheyenne,-101.7318625,39.78580547
12027,DeSoto,-81.80959835,27.18691656
17137,Morgan,-90.20121837,39.71580417
08045,Garfield,-107.9036205,39.59941978
48237,Jack,-98.17283469,33.23377248
29229,Wright,-92.4694931,37.27078998
12111,St. Lucie,-80.47111892,27.377528
20099,Labette,-95.29765463,37.19127872
40041,Delaware,-94.80256963,36.4089821
01087,Macon,-85.69260703,32.38585029
08057,Jackson,-106.3427076,40.66623861
01061,Geneva,-85.83932953,31.09486905
13023,Bleckley,-83.32769512,32.43444176
20121,Miami,-94.83822279,38.56363954
17109,McDonough,-90.67775541,40.45674722
48283,La Salle,-99.0992434,28.34445432
13029,Bryan,-81.44364706,32.0140721
20109,Logan,-101.148475,38.91735806
17121,Marion,-88.91900564,38.64962591
48311,McMullen,-98.567849,28.35261097
39119,Muskingum,-81.94452332,39.96581387
08095,Phillips,-102.3573987,40.59394842
20193,Thomas,-101.0553705,39.35107575
48367,Parker,-97.80496943,32.77760907
08103,Rio Blanco,-108.2172628,39.97993245
08105,Rio Grande,-106.3829289,37.58223621
39137,Putnam,-84.13168547,41.02216769
17175,Stark,-89.79757636,41.09327074
39139,Richland,-82.53676639,40.77482478
48393,Roberts,-100.813175,35.83809685
48399,Runnels,-99.97616148,31.8314342
21227,Warren,-86.42358976,36.9932296
48421,Sherman,-101.8933684,36.27765456
13109,Evans,-81.88687929,32.1569194
19107,Keokuk,-92.1785067,41.33649833
17199,Williamson,-88.93009646,37.73040742
12011,Broward,-80.48723143,26.15220703
13171,Lamar,-84.13960587,33.07619286
39033,Crawford,-82.91997484,40.85061678
13195,Madison,-83.20833143,34.12798628
39073,Hocking,-82.47907934,39.49712923
39027,Clinton,-83.80825529,39.41489655
39031,Coshocton,-81.91980212,40.30215268
48011,Armstrong,-101.3574874,34.96507426
39041,Delaware,-83.00450275,40.27841348
48031,Blanco,-98.3999852,30.26640707
51720,Norton,-82.62648895,36.9310873
51830,Williamsburg,-76.70721344,37.26927809
29067,Douglas,-92.49898814,36.93253661
48317,Martin,-101.9513518,32.30600051
29093,Iron,-90.77398853,37.5553541
48301,Loving,-103.5798367,31.8491553
48033,Borden,-101.4316509,32.74363984
40031,Comanche,-98.47164344,34.6620099
08025,Crowley,-103.7838298,38.32685938
29203,Shannon,-91.39993659,37.15713986
48431,Sterling,-101.0500746,31.82781912
48461,Upton,-102.0428877,31.36864453
48495,Winkler,-103.048449,31.85000039
48253,Jones,-99.87871324,32.7400927
48441,Taylor,-99.88996827,32.30175703
08119,Teller,-105.1619203,38.88227296
48335,Mitchell,-100.9212058,32.30623474
48059,Callahan,-99.37326312,32.29760619
40083,Logan,-97.44308101,35.91913897
40001,Adair,-94.65863245,35.88406262
36043,Herkimer,-74.96255405,43.41936241
48467,Van Zandt,-95.83674215,32.56379892
40109,Oklahoma,-97.4075036,35.55141319
48213,Henderson,-95.85377795,32.21224151
36007,Broome,-75.8198592,42.16037158
40005,Atoka,-96.03794859,34.37367259
48471,Walker,-95.57247928,30.73883544
40029,Coal,-96.29798747,34.58840127
48185,Grimes,-95.98558082,30.5437066
40127,Pushmataha,-95.37595261,34.41635817
01091,Marengo,-87.78920946,32.24794915
01075,Lamar,-88.09715315,33.77909349
05003,Ashley,-91.76814114,33.19120398
29063,DeKalb,-94.40452876,39.89285656
51750,Radford,-80.55838396,37.12313924
54047,McDowell,-81.65416089,37.378572
31099,Kearney,-98.94803186,40.50675437
54033,Harrison,-80.37983086,39.28363307
29049,Clinton,-94.40468366,39.60124265
54007,Braxton,-80.71925498,38.70024736
72007,Aguas Buenas,-66.12607813,18.25129795
72027,Camuy,-66.86018176,18.41919751
72039,Ciales,-66.51671207,18.29014773
28031,Covington,-89.55267845,31.6331285
50015,Lamoille,-72.641331,44.60594136
28069,Kemper,-88.64097868,32.75459457
55127,Walworth,-88.54158045,42.66848551
32027,Pershing,-118.4047657,40.43952288
32021,Mineral,-118.4346446,38.53880917
72137,Toa Baja,-66.21551546,18.4313626
72139,Trujillo Alto,-65.9995301,18.33693881
39015,Brown,-83.86741596,38.93410315
27017,Carlton,-92.67716012,46.592321
12019,Clay,-81.85783045,29.98317912
28015,Carroll,-89.92031051,33.44884455
38101,Ward,-101.541865,48.22179884
02188,Northwest Arctic,-159.724644,67.05555844
38087,Slope,-103.4602876,46.4473194
20185,Stafford,-98.71763136,38.03102509
41021,Gilliam,-120.210458,45.37780558
26051,Gladwin,-84.38860114,43.99062122
38049,McHenry,-100.6362783,48.23439818
19177,Van Buren,-91.95043301,40.75308722
20105,Lincoln,-98.20749,39.04547506
13021,Bibb,-83.69682554,32.80691473
26125,Oakland,-83.38594391,42.66090645
19009,Audubon,-94.90581859,41.6844628
18015,Carroll,-86.5635188,40.58306044
26135,Oscoda,-84.12938765,44.68170135
47047,Fayette,-89.41493045,35.19709994
20167,Russell,-98.76247878,38.91467637
72125,San Germn,-67.03910309,18.11192588
26087,Lapeer,-83.22153148,43.09052506
51550,Chesapeake,-76.30244008,36.67787032
72009,Aibonito,-66.26454838,18.13045854
60050,Western,-170.7703365,-14.3247379
18179,Wells,-85.22119115,40.72931843
20085,Jackson,-95.79433878,39.41641542
02240,Southeast Fairbanks,-143.2069204,63.87695823
19171,Tama,-92.53266945,42.07991767
06103,Tehama,-122.2338547,40.12559985
18103,Miami,-86.04523681,40.76954805
06109,Tuolumne,-119.9551317,38.02748982
18133,Putnam,-86.84503425,39.66633516
49043,Summit,-110.9558542,40.86838131
17141,Ogle,-89.32021067,42.04257451
06057,Nevada,-120.7682923,39.30150048
20027,Clay,-97.16512523,39.34944765
55077,Marquette,-89.39896563,43.81971333
55115,Shawano,-88.76489325,44.78886999
16049,Idaho,-115.4671964,45.84388002
16061,Lewis,-116.4267621,46.2366682
20101,Lane,-100.4660754,38.48119447
38079,Rolette,-99.84096449,48.77247566
20143,Ottawa,-97.65020313,39.13237408
22007,Assumption,-91.06263132,29.90081675
36049,Lewis,-75.44886742,43.78465035
37029,Camden,-76.20583468,36.38675278
17101,Lawrence,-87.72698819,38.72048612
20119,Meade,-100.3655617,37.23826363
42007,Beaver,-80.34928676,40.68241496
30081,Ravalli,-114.120145,46.08166896
31133,Pawnee,-96.23706382,40.13139323
31095,Jefferson,-97.14261379,40.17580816
13009,Baldwin,-83.24970322,33.06940962
02130,Ketchikan Gateway,-130.9369511,55.58672276
48501,Yoakum,-102.8279472,33.1730387
31163,Sherman,-98.97588642,41.22045983
31037,Colfax,-97.086359,41.57404386
42025,Carbon,-75.70851105,40.91846484
39149,Shelby,-84.20440063,40.33212183
40037,Creek,-96.37089402,35.90233119
18057,Hamilton,-86.05184193,40.07229856
19091,Humboldt,-94.20722537,42.7764426
20127,Morris,-96.64983521,38.68742242
20195,Trego,-99.87284448,38.91467218
19015,Boone,-93.93139995,42.0366177
28077,Lawrence,-90.10693379,31.54996744
17135,Montgomery,-89.4790156,39.23097041
29103,Knox,-92.14789043,40.12754125
18085,Kosciusko,-85.86064998,41.24435723
72011,Aasco,-67.12171471,18.28872155
26021,Berrien,-86.41252941,41.95468812
26067,Ionia,-85.07413319,42.94502238
48129,Donley,-100.8140093,34.96517499
46087,McCook,-97.36854569,43.67426214
48297,Live Oak,-98.12498408,28.35137771
47113,Madison,-88.83867386,35.60806385
39045,Fairfield,-82.63064275,39.75164711
38083,Sheridan,-100.3455585,47.5754264
39023,Clark,-83.78354054,39.91660044
04023,Santa Cruz,-110.8466869,31.52598116
13177,Lee,-84.14092773,31.77942972
20175,Seward,-100.850601,37.19327656
22017,Caddo,-93.88236667,32.5802177
23009,Hancock,-68.35862848,44.64373173
24011,Caroline,-75.83180727,38.87198968
39039,Defiance,-84.49071987,41.3239854
30025,Fallon,-104.417515,46.3343054
27063,Jackson,-95.15400031,43.67418723
28123,Scott,-89.53789439,32.4067041
08003,Alamosa,-105.788359,37.57261807
12091,Okaloosa,-86.59219666,30.69101554
12117,Seminole,-81.23634611,28.71682625
13083,Dade,-85.50458952,34.85458429
28005,Amite,-90.80453378,31.17425244
28023,Clarke,-88.68928948,32.04139674
46049,Faulk,-99.14535601,45.07082625
13131,Grady,-84.23475065,30.87476853
72117,Rincn,-67.23189285,18.33498528
27111,Otter Tail,-95.70748857,46.4090783
28057,Itawamba,-88.36140611,34.27995113
17059,Gallatin,-88.23082016,37.76253711
21141,Logan,-86.87901935,36.8597188
44001,Bristol,-71.28385194,41.71169465
26059,Hillsdale,-84.59305475,41.88768696
08041,El Paso,-104.5257538,38.83242336
01057,Fayette,-87.73924331,33.72117266
54089,Summers,-80.85840283,37.65596695
31139,Pierce,-97.60122773,42.26434853
29169,Pulaski,-92.20749866,37.82458658
39169,Wayne,-81.88780787,40.82926705
26111,Midland,-84.38804837,43.64674881
19113,Linn,-91.59809485,42.07923082
16015,Boise,-115.730321,43.98909247
27041,Douglas,-95.45422901,45.93372693
17055,Franklin,-88.9239703,37.99202257
29215,Texas,-91.96523434,37.3167567
29025,Caldwell,-93.98309623,39.65668445
55081,Monroe,-90.61820195,43.94576215
55025,Dane,-89.41786325,43.06746565
47131,Obion,-89.1487146,36.35824874
13143,Haralson,-85.21085788,33.79399282
20191,Sumner,-97.476759,37.2369258
22027,Claiborne,-92.99565971,32.82277025
30051,Liberty,-111.0252038,48.56122467
28103,Noxubee,-88.56962273,33.1101406
28075,Lauderdale,-88.66247435,32.40429857
13227,Pickens,-84.46567239,34.46423209
48117,Deaf Smith,-102.6052738,34.96515022
42109,Snyder,-77.06984318,40.76993359
40103,Noble,-97.23050054,36.3884853
20111,Lyon,-96.15280427,38.45580918
17093,Kendall,-88.42879892,41.59088826
26045,Eaton,-84.83740035,42.59599185
17039,De Witt,-88.90408529,40.17434051
29001,Adair,-92.6007527,40.19054871
19029,Cass,-94.92806328,41.33152905
28115,Pontotoc,-89.03719509,34.22521097
48463,Uvalde,-99.76229172,29.35739637
51690,Martinsville,-79.86345947,36.68207476
40015,Caddo,-98.37502407,35.17437642
27131,Rice,-93.2965986,44.35432778
27151,Swift,-95.68142474,45.28288933
26085,Lake,-85.80209274,43.99041242
55129,Washburn,-91.79131495,45.89909725
18003,Allen,-85.06652248,41.0912565
31001,Adams,-98.50117804,40.5244942
60030,Rose Island,-168.1521132,-14.54212416
20203,Wichita,-101.3471509,38.48178252
55087,Outagamie,-88.46565023,44.41578887
48435,Sutton,-100.5382117,30.4985468
48127,Dimmit,-99.75646833,28.42276169
48139,Ellis,-96.79470819,32.34880007
48437,Swisher,-101.7349174,34.53028891
36017,Chenango,-75.61144344,42.49352629
38041,Hettinger,-102.4607133,46.43276791
39071,Highland,-83.60078719,39.18468334
13275,Thomas,-83.91853341,30.86359281
18007,Benton,-87.31082597,40.60631635
20147,Phillips,-99.34669372,39.78462799
26095,Luce,-85.54389048,46.4704998
46101,Moody,-96.67091097,44.02224521
37041,Chowan,-76.60802425,36.14854015
39171,Williams,-84.58816167,41.56027968
40147,Washington,-95.90449238,36.71527849
37169,Stokes,-80.23912302,36.40186627
29091,Howell,-91.88649829,36.77371722
33009,Grafton,-71.82064764,43.94073661
26127,Oceana,-86.26734566,43.64097781
08047,Gilpin,-105.5221395,39.85721134
05141,Van Buren,-92.51610324,35.58054667
53007,Chelan,-120.6188281,47.86921949
54069,Ohio,-80.61888538,40.09682683
31185,York,-97.59710186,40.87272618
31019,Buffalo,-99.07510068,40.85504881
39143,Sandusky,-83.14419942,41.35730372
40039,Custer,-99.0014123,35.63856198
18095,Madison,-85.71947571,40.16126825
20133,Neosho,-95.30682401,37.5582728
20083,Hodgeman,-99.89821264,38.08784693
28161,Yalobusha,-89.70745642,34.02831011
28159,Winston,-89.03430894,33.0883872
29205,Shelby,-92.07658198,39.7979959
21073,Franklin,-84.87704049,38.23894371
72105,Naranjito,-66.25362073,18.28716348
31135,Perkins,-101.6502998,40.85082266
18023,Clinton,-86.475326,40.30214562
19049,Dallas,-94.03970701,41.68489264
29119,McDonald,-94.34823345,36.6286562
46005,Beadle,-98.27883711,44.41467039
46115,Spink,-98.34623659,44.93824835
55047,Green Lake,-89.04505121,43.80037233
51775,Salem,-80.05325441,37.28655753
51630,Fredericksburg,-77.48619454,38.29892214
38039,Griggs,-98.23703207,47.4570984
01081,Lee,-85.35522451,32.60106116
04007,Gila,-110.8119677,33.79996932
06061,Placer,-120.717846,39.06347097
06017,El Dorado,-120.5247066,38.77888901
02164,Lake and Peninsula,-156.1888735,58.63664843
02150,Kodiak Island,-153.7750279,57.66653702
05111,Poinsett,-90.66282507,35.57408383
13097,Douglas,-84.76851394,33.7021135
02230,Skagway,-135.3374592,59.55833766
01133,Winston,-87.37341176,34.14959585
48483,Wheeler,-100.2699514,35.40114335
37069,Franklin,-78.2853416,36.08251637
39159,Union,-83.37130174,40.29926661
38045,LaMoure,-98.53552136,46.45686514
39165,Warren,-84.16728624,39.42735056
39065,Hardin,-83.65939867,40.66129428
13139,Hall,-83.819838,34.31734176
18067,Howard,-86.1167092,40.48362355
20009,Barton,-98.75632156,38.478934
28037,Franklin,-90.89833873,31.47675129
17011,Bureau,-89.52841534,41.40406966
27039,Dodge,-92.86236786,44.02229546
55053,Jackson,-90.80515334,44.31927005
26025,Calhoun,-85.00508394,42.24636617
20135,Ness,-99.91547333,38.47974157
60040,Swains Island,-171.0781094,-11.05493121
20015,Butler,-96.83878537,37.78134351
46069,Hyde,-99.48692012,44.54709825
46017,Buffalo,-99.20485567,44.07640555
48065,Carson,-101.3542669,35.40365929
47053,Gibson,-88.93264081,35.99666265
48173,Glasscock,-101.5207776,31.86942909
48295,Lipscomb,-100.2732972,36.27778375
48381,Randall,-101.8971322,34.96585996
46037,Day,-97.60737593,45.36728275
01107,Pickens,-88.08923504,33.28058298
17197,Will,-87.97829555,41.44485087
19063,Emmet,-94.67861391,43.37782281
19185,Wayne,-93.32744042,40.73965649
23003,Aroostook,-68.5987449,46.65913528
38095,Towner,-99.24564463,48.68566015
38009,Bottineau,-100.8333086,48.792102
37149,Polk,-82.17008141,35.27959223
27091,Martin,-94.55099667,43.67430059
32013,Humboldt,-118.1118195,41.4063802
13243,Randolph,-84.75379101,31.7621807
13283,Treutlen,-82.56783271,32.40331611
01011,Bullock,-85.71572943,32.10045868
48359,Oldham,-102.6027421,35.40425708
37109,Lincoln,-81.22393811,35.48589556
38069,Pierce,-99.97174953,48.24958064
36035,Fulton,-74.42194258,43.11377432
31077,Greeley,-98.52144222,41.56747021
18157,Tippecanoe,-86.89407624,40.38871167
18093,Lawrence,-86.48322849,38.84095382
29221,Washington,-90.8786674,37.96173417
19121,Madison,-94.01554631,41.33081904
27087,Mahnomen,-95.8091992,47.32558784
17171,Scott,-90.47455118,39.64403604
28085,Lincoln,-90.45417438,31.53240135
28097,Montgomery,-89.61664559,33.49402718
50009,Essex,-71.736327,44.7283185
55071,Manitowoc,-87.80948518,44.11990639
48087,Collingsworth,-100.2700105,34.96489439
39151,Stark,-81.36571811,40.8138382
27159,Wadena,-94.9700148,46.5856535
29039,Cedar,-93.85592541,37.72350148
19023,Butler,-92.79015971,42.73172833
20059,Franklin,-95.28621552,38.56442768
28101,Newton,-89.11871108,32.40013897
17187,Warren,-90.61478203,40.84888704
26039,Crawford,-84.61024859,44.68323123
18181,White,-86.8655579,40.74977914
17051,Fayette,-89.02441763,39.0000587
27067,Kandiyohi,-95.00576302,45.15252304
18035,Delaware,-85.39732772,40.22787247
29225,Webster,-92.87591692,37.28085752
31059,Fillmore,-97.59646937,40.52458567
20207,Woodson,-95.74071995,37.88668091
19073,Greene,-94.39658081,42.03614551
18049,Fulton,-86.26356168,41.04713247
20159,Rice,-98.20053402,38.34721983
20003,Anderson,-95.29324204,38.21396508
46059,Hand,-99.00538393,44.54798838
55055,Jefferson,-88.77532763,43.02053192
51610,Falls Church,-77.17519332,38.88441803
36097,Schuyler,-76.8749143,42.39369114
46029,Codington,-97.18860384,44.97790512
72145,Vega Baja,-66.39731281,18.42873078
46085,Lyman,-99.84735699,43.89597621
28067,Jones,-89.168969,31.62257767
37077,Granville,-78.65301,36.30365992
51730,Petersburg,-77.3926205,37.20404153
39103,Medina,-81.8998621,41.11770589
20153,Rawlins,-101.07618,39.78524494
16081,Teton,-111.2078712,43.7599238
20155,Reno,-98.08586348,37.95303921
20197,Wabaunsee,-96.20480435,38.95324678
17153,Pulaski,-89.12738626,37.22269456
41055,Sherman,-120.6892687,45.4052255
13101,Echols,-82.89413878,30.70991003
42009,Bedford,-78.49051194,40.00670558
19021,Buena Vista,-95.15100162,42.73545875
19079,Hamilton,-93.70672502,42.38395377
39127,Perry,-82.23618289,39.73723959
17035,Cumberland,-88.24032182,39.27402319
17023,Clark,-87.7878617,39.33402321
19145,Page,-95.15010031,40.73917437
26131,Ontonagon,-89.31491201,46.66430808
40077,Latimer,-95.25098995,34.87639948
48003,Andrews,-102.6376348,32.30470528
47067,Hancock,-83.2217117,36.52355034
35029,Luna,-107.7498996,32.18233304
31061,Franklin,-98.95299529,40.17637323
13189,McDuffie,-82.4818329,33.48313346
02270,Wade Hampton,-163.3844205,62.15704475
02198,Prince of Wales-Hyder,-133.0585096,55.81638031
06069,San Benito,-121.0752215,36.60559815
18097,Marion,-86.13826325,39.78163624
13081,Crisp,-83.76727919,31.92287244
51710,Norfolk,-76.25967731,36.89479704
51065,Fluvanna,-78.27765024,37.84216441
48075,Childress,-100.2077744,34.52929885
41043,Linn,-122.5341835,44.48880768
37001,Alamance,-79.39913194,36.04378576
35011,De Baca,-104.4120813,34.34266
39129,Pickaway,-83.02450193,39.64185964
27149,Stevens,-96.00022786,45.58615985
27125,Red Lake,-96.09561104,47.87197525
19037,Chickasaw,-92.31766909,43.06009652
22061,Lincoln,-92.66473671,32.60149394
28017,Chickasaw,-88.94784369,33.92084863
29101,Johnson,-93.80588795,38.74399152
27051,Grant,-96.01216405,45.93402352
72089,Luquillo,-65.72588384,18.34258508
28111,Perry,-88.9925273,31.17209382
69110,Saipan,145.7509098,15.18953726
28079,Leake,-89.52402041,32.7536828
48125,Dickens,-100.7788855,33.61616822
48099,Coryell,-97.79936155,31.39078397
48189,Hale,-101.8268114,34.07044901
48445,Terry,-102.3354521,33.17402785
40025,Cimarron,-102.5178111,36.74826632
39125,Paulding,-84.58018842,41.11674251
08017,Cheyenne,-102.6036365,38.82780723
17163,St. Clair,-89.92848248,38.4703223
20137,Norton,-99.90284946,39.78448106
23029,Washington,-67.62910779,45.02177186
26153,Schoolcraft,-86.19985664,46.19666734
39043,Erie,-82.63799692,41.37421463
39107,Mercer,-84.62929783,40.54030771
31109,Lancaster,-96.68776297,40.78416865
31157,Scotts Bluff,-103.7084612,41.85095717
33011,Hillsborough,-71.71602867,42.9153307
30001,Beaverhead,-112.899016,45.13261641
06019,Fresno,-119.6506833,36.75807672
12055,Highlands,-81.34078347,27.3428855
56029,Park,-109.5885953,44.52053528
48385,Real,-99.82222259,29.8324893
13179,Liberty,-81.49463778,31.82777126
13239,Quitman,-85.01684071,31.86629277
08011,Bent,-103.0720227,37.95492416
48305,Lynn,-101.8162849,33.17657705
48169,Garza,-101.2984114,33.17969345
51137,Orange,-78.01298345,38.24635826
54017,Doddridge,-80.70721363,39.26936104
72041,Cidra,-66.16028438,18.17423695
38007,Billings,-103.3762965,47.02366884
02185,North Slope,-153.4702536,69.31507516
72103,Naguabo,-65.75412933,18.23111172
20051,Ellis,-99.31751551,38.91458712
18011,Boone,-86.46866856,40.05117643
20117,Marshall,-96.52279918,39.78357355
55005,Barron,-91.84833604,45.42372695
29015,Benton,-93.28827876,38.2951634
13201,Miller,-84.73106803,31.16479534
28061,Jasper,-89.11866575,32.01901366
18135,Randolph,-85.0114051,40.15748383
29071,Franklin,-91.07489027,38.4111314
31179,Wayne,-97.11926964,42.20934475
02220,Sitka,-135.3151746,57.23393263
31113,Logan,-100.482244,41.56652317
72047,Corozal,-66.32896683,18.3041008
34011,Cumberland,-75.11135485,39.37323951
18107,Montgomery,-86.89342256,40.04037231
48343,Morris,-94.73282508,33.11284956
13135,Gwinnett,-84.02400746,33.9614268
20081,Haskell,-100.8710456,37.56200432
30033,Garfield,-106.9928862,47.27767106
48223,Hopkins,-95.56432257,33.14945662
21221,Trigg,-87.87327174,36.80638303
01037,Coosa,-86.24789409,32.9362956
55139,Winnebago,-88.64477096,44.06886922
38071,Ramsey,-98.72015658,48.2690641
16037,Custer,-114.2816427,44.24147306
40003,Alfalfa,-98.32176345,36.73091839
28009,Benton,-89.18844118,34.8172204
42019,Butler,-79.91342345,40.91176277
55073,Marathon,-89.75863384,44.89792533
46007,Bennett,-101.6641253,43.19506714
36091,Saratoga,-73.86394518,43.10743063
20139,Osage,-95.72707998,38.65235984
48163,Frio,-99.10804207,28.86751206
28137,Tate,-89.94520436,34.65069529
55078,Menominee,-88.70957298,45.00428348
17147,Piatt,-88.59111102,40.01024723
31013,Box Butte,-103.0860173,42.22084585
29077,Greene,-93.34188307,37.25758647
22055,Lafayette,-92.0636004,30.20738593
33007,Coos,-71.30563958,44.68948989
05051,Garland,-93.15048723,34.57659951
47071,Hardin,-88.1845967,35.19856007
56031,Platte,-104.9661319,42.13239072
17097,Lake,-88.00373142,42.32318039
37107,Lenoir,-77.64152691,35.23892735
72081,Lares,-66.86725626,18.26903434
13215,Muscogee,-84.87620281,32.51001825
42077,Lehigh,-75.59214444,40.61280627
26161,Washtenaw,-83.83879891,42.25344402
19055,Delaware,-91.36741055,42.4713865
72143,Vega Alta,-66.33676656,18.41003729
38075,Renville,-101.6577138,48.71910481
13089,DeKalb,-84.22665212,33.77122192
19169,Story,-93.46499005,42.03621213
18005,Bartholomew,-85.89789136,39.20574386
01067,Henry,-85.24094152,31.51487991
05075,Lawrence,-91.1070497,36.04103952
22005,Ascension,-90.91101939,30.20335229
51183,Sussex,-77.26234107,36.92136549
48195,Hansford,-101.3545796,36.27743284
40097,Mayes,-95.23132466,36.30176119
40011,Blaine,-98.432652,35.87536168
30029,Flathead,-114.0497122,48.29520088
46129,Walworth,-100.0313401,45.42998641
20077,Harper,-98.07579639,37.1917471
31123,Morrill,-103.0105871,41.7164533
20061,Geary,-96.75251853,39.00227253
51840,Winchester,-78.17299993,39.17278399
20037,Crawford,-94.85185156,37.50702733
31087,Hitchcock,-101.0419762,40.17616691
39055,Geauga,-81.17872133,41.49972479
26137,Otsego,-84.59972828,45.02079452
19095,Iowa,-92.06369553,41.68621637
48009,Archer,-98.68754589,33.61569967
37093,Hoke,-79.23678619,35.01716668
22089,St. Charles,-90.35781296,29.90559494
31063,Frontier,-100.3936643,40.53024724
48325,Medina,-99.11033508,29.35546127
19103,Johnson,-91.58679259,41.67150873
18131,Pulaski,-86.69890683,41.04166107
19159,Ringgold,-94.24367465,40.7351498
47111,Macon,-86.00775763,36.53211833
27133,Rock,-96.25305709,43.67485346
16051,Jefferson,-112.3114205,43.82027224
42083,McKean,-78.56888029,41.80786813
39069,Henry,-84.06830637,41.3339642
38003,Barnes,-98.07170952,46.93593125
48179,Gray,-100.8129222,35.40081878
38091,Steele,-97.72479507,47.45618207
46081,Lawrence,-103.7921498,44.35866653
45061,Lee,-80.25465278,34.16360573
19041,Clay,-95.15096481,43.08247182
20049,Elk,-96.24370891,37.45338324
27033,Cottonwood,-95.18136404,44.00720878
26123,Newaygo,-85.80070154,43.5544124
48397,Rockwall,-96.40769484,32.89785884
40111,Okmulgee,-95.96434123,35.64662667
41065,Wasco,-121.1678419,45.16003768
27113,Pennington,-96.03627453,48.0666771
22113,Vermilion,-92.32457583,29.84621938
22123,West Carroll,-91.45664676,32.78885847
26115,Monroe,-83.53769332,41.92832154
48391,Refugio,-97.16001089,28.32554745
41027,Hood River,-121.6512892,45.51931999
45051,Horry,-78.99657939,33.92139357
37031,Carteret,-76.65336214,34.8275267
45005,Allendale,-81.35758839,32.98833364
37039,Cherokee,-84.06424533,35.13376757
26019,Benzie,-86.01505847,44.63910932
29037,Cass,-94.35504883,38.64793026
31153,Sarpy,-96.11218009,41.11287068
29081,Harrison,-93.99193402,40.35497608
36027,Dutchess,-73.74303603,41.76513375
13223,Paulding,-84.86736714,33.92082846
13117,Forsyth,-84.12468922,34.2256545
35025,Lea,-103.4124539,32.79215735
48263,Kent,-100.7780898,33.18104889
20019,Chautauqua,-96.24531969,37.14997344
05043,Drew,-91.71972855,33.58957425
28105,Oktibbeha,-88.8794268,33.42493738
72015,Arroyo,-66.05744329,17.9984593
40149,Washita,-98.99166621,35.29031759
26145,Saginaw,-84.0526996,43.33526107
06031,Kings,-119.8151995,36.07520008
20123,Mitchell,-98.20900663,39.39334518
27119,Polk,-96.40222842,47.77395991
27123,Ramsey,-93.09987304,45.01747232
55017,Chippewa,-91.28017125,45.06921882
26079,Kalkaska,-85.0904614,44.68488514
28113,Pike,-90.40396978,31.17495895
72071,Isabela,-67.00476317,18.44963632
39135,Preble,-84.64804448,39.74220535
31175,Valley,-98.98208511,41.56723462
12125,Union,-82.37209886,30.04340869
31151,Saline,-97.14080062,40.52415215
48231,Hunt,-96.08560239,33.12356693
49009,Daggett,-109.5076481,40.88725861
20095,Kingman,-98.13639393,37.55911415
48151,Fisher,-100.4019302,32.74281316
42131,Wyoming,-76.01693959,41.51833347
19093,Ida,-95.51355387,42.38696136
30041,Hill,-110.1111845,48.62840165
48211,Hemphill,-100.2703577,35.83764858
39109,Miami,-84.22868895,40.05414393
29187,St. Francois,-90.47255556,37.81055607
06091,Sierra,-120.5162324,39.58019892
38081,Sargent,-97.63059676,46.1078458
31035,Clay,-98.05126296,40.52439441
20063,Gove,-100.4829436,38.91587321
48115,Dawson,-101.9477242,32.74255572
06083,Santa Barbara,-120.0150919,34.67142103
54075,Pocahontas,-80.00762338,38.33190977
08009,Baca,-102.5601186,37.31923997
09001,Fairfield,-73.38919037,41.26973285
13053,Chattahoochee,-84.78680953,32.34694534
18087,LaGrange,-85.42669106,41.64234778
18173,Warrick,-87.2717425,38.09237205
18019,Clark,-85.70765032,38.47743705
19163,Scott,-90.62318822,41.63706131
21041,Carroll,-85.12373313,38.66814643
21117,Kenton,-84.53313887,38.93368118
26013,Baraga,-88.36559186,46.66237725
31165,Sioux,-103.7588138,42.48797315
54019,Fayette,-81.08105939,38.02876546
47085,Humphreys,-87.77571312,36.04110957
48221,Hood,-97.83219383,32.43002712
47033,Crockett,-89.13938582,35.81376271
47031,Coffee,-86.07559709,35.49021487
54101,Webster,-80.4218655,38.49472856
47079,Henry,-88.30116646,36.33178059
40051,Grady,-97.88360671,35.01633237
41067,Washington,-123.0985728,45.55989124
37185,Warren,-78.10671227,36.39674307
01053,Escambia,-87.16176056,31.12613571
05127,Scott,-94.06315729,34.86103868
05035,Crittenden,-90.30924635,35.20762172
13191,McIntosh,-81.40719089,31.49489855
18153,Sullivan,-87.41401466,39.08909886
19089,Howard,-92.31710205,43.35677003
19115,Louisa,-91.25958262,41.21843405
19097,Jackson,-90.57403934,42.17178419
21015,Boone,-84.72794553,38.96984373
22109,Terrebonne,-90.86454347,29.40922061
21159,Martin,-82.51414497,37.80090718
22011,Beauregard,-93.3436646,30.64776149
08065,Lake,-106.344854,39.20226223
12013,Calhoun,-85.19679907,30.40604523
08035,Douglas,-104.92921,39.32970828
13311,White,-83.74657149,34.64590613
56023,Lincoln,-110.656067,42.26409375
51153,Prince William,-77.48028729,38.70276099
49003,Box Elder,-113.0821456,41.52095018
49045,Tooele,-113.1311648,40.44875267
37085,Harnett,-78.86964365,35.368729
31125,Nance,-97.99248173,41.3972847
31017,Brown,-99.92949608,42.43016331
45067,Marion,-79.36252998,34.08038363
38037,Grant,-101.6397779,46.35813751
30095,Stillwater,-109.394534,45.66951507
30017,Custer,-105.5718948,46.25264388
35061,Valencia,-106.8090108,34.71536166
36123,Yates,-77.10558958,42.63362823
13267,Tattnall,-82.05794341,32.04578293
29105,Laclede,-92.59043082,37.65865829
13321,Worth,-83.8509648,31.55124636
20001,Allen,-95.30115478,37.88555459
17169,Schuyler,-90.61538755,40.15816304
21189,Owsley,-83.68320054,37.41974744
20079,Harvey,-97.42729333,38.04321442
18119,Owen,-86.83782352,39.31262962
27003,Anoka,-93.24708307,45.27314304
29043,Christian,-93.18847844,36.96906632
20007,Barber,-98.68457457,37.22893536
01047,Dallas,-87.10649231,32.32606741
55095,Polk,-92.44123483,45.4615393
45035,Dorchester,-80.40502258,33.07948049
30099,Teton,-112.2407056,47.83722455
33001,Belknap,-71.4226598,43.51832231
41023,Grant,-119.0074917,44.4907455
36069,Ontario,-77.29986178,42.85304122
31101,Keith,-101.6614388,41.19906619
13057,Cherokee,-84.47621286,34.24473392
13161,Jeff Davis,-82.63685771,31.8053696
21067,Fayette,-84.4589719,38.04287124
21087,Green,-85.55273508,37.26369627
28071,Lafayette,-89.48471446,34.35673647
21229,Washington,-85.17499676,37.75352228
21081,Grant,-84.62407384,38.64914531
13069,Coffee,-82.84967311,31.54918005
18059,Hancock,-85.77325696,39.82296118
27009,Benton,-93.9984359,45.69827623
72065,Hatillo,-66.79574437,18.40992471
49039,Sanpete,-111.5763852,39.37372605
22041,Franklin,-91.67348178,32.13329548
29003,Andrew,-94.80140498,39.98335111
19083,Hardin,-93.24040527,42.38393029
18105,Monroe,-86.52334305,39.16100464
23017,Oxford,-70.75611419,44.49924446
25005,Bristol,-71.11419448,41.79709525
48201,Harris,-95.39302715,29.85748873
40071,Kay,-97.1438723,36.81795089
38033,Golden Valley,-103.8465777,46.94026181
30101,Toole,-111.6959501,48.65534485
31015,Boyd,-98.76608585,42.89966872
36073,Orleans,-78.23141929,43.25158537
36101,Steuben,-77.3834881,42.26788874
28001,Adams,-91.35355624,31.48172857
34021,Mercer,-74.70164497,40.28339139
13255,Spalding,-84.28381621,33.26065533
02110,Juneau,-134.1764399,58.45091866
05109,Pike,-93.65621,34.16356461
55023,Crawford,-90.93068567,43.23966087
48229,Hudspeth,-105.3871487,31.4564022
54051,Marshall,-80.66340417,39.86038842
54029,Hancock,-80.57390126,40.52189394
21037,Campbell,-84.3791722,38.94658952
22107,Tensas,-91.34006167,32.00026867
23027,Waldo,-69.14427892,44.50136648
46091,Marshall,-97.59865421,45.75863325
38023,Divide,-103.4871163,48.81486205
46127,Union,-96.65571268,42.83182818
42133,York,-76.72634152,39.92001283
47157,Shelby,-89.89620223,35.18412715
39081,Jefferson,-80.76113054,40.38470042
37115,Madison,-82.70612535,35.85793329
28139,Tippah,-88.90883067,34.76830318
31057,Dundy,-101.6878043,40.17625316
37133,Onslow,-77.42736897,34.72975141
35007,Colfax,-104.6468731,36.60619925
27049,Goodhue,-92.72266089,44.40972913
27169,Winona,-91.77934467,43.98683746
32023,Nye,-116.47176,38.04212846
28049,Hinds,-90.44251629,32.26628404
20157,Republic,-97.65034285,39.8279368
48493,Wilson,-98.08694449,29.17420221
54013,Calhoun,-81.11738243,38.84382602
55067,Langlade,-89.07193609,45.26219987
55111,Sauk,-89.94819801,43.42667177
47061,Grundy,-85.72237029,35.3884299
51125,Nelson,-78.88692463,37.7874546
48373,Polk,-94.82986499,30.79270853
41037,Lake,-120.3873864,42.79350818
51680,Lynchburg,-79.19044951,37.40023149
12005,Bay,-85.62005473,30.26520819
01097,Mobile,-88.20659057,30.77909854
06037,Los Angeles,-118.224703,34.32134579
08023,Costilla,-105.4278551,37.27823118
06035,Lassen,-120.5947447,40.6733613
12063,Jackson,-85.21596518,30.79547704
13281,Towns,-83.73739141,34.91666684
01023,Choctaw,-88.26305322,32.02019311
20025,Clark,-99.8196146,37.23547247
20043,Doniphan,-95.14683558,39.78796644
21177,Muhlenberg,-87.1426872,37.21592449
72005,Aguadilla,-67.12067807,18.46028414
17045,Edgar,-87.74546531,39.67865165
13225,Peach,-83.82790492,32.56840679
72151,Yabucoa,-65.89622001,18.07018602
29181,Ripley,-90.86381088,36.65269053
15005,Kalawao,-156.9493744,21.17295672
55021,Columbia,-89.33408259,43.4669904
35051,Sierra,-107.1925539,33.13025321
21021,Boyle,-84.86612061,37.62427782
47055,Giles,-87.03541784,35.20194268
48327,Menard,-99.8204794,30.88990665
47083,Houston,-87.71768095,36.28616631
49017,Garfield,-111.4425093,37.85511631
48005,Angelina,-94.61100866,31.25457834
48175,Goliad,-97.42628751,28.65724851
51063,Floyd,-80.36184172,36.93162812
48477,Washington,-96.40341594,30.21441875
48379,Rains,-95.79355891,32.87032705
04027,Yuma,-113.9058099,32.76933672
05049,Fulton,-91.81767336,36.3818346
12021,Collier,-81.34769003,26.11069361
36029,Erie,-78.73230753,42.76409998
29199,Scotland,-92.1472444,40.45201091
27173,Yellow Medicine,-95.86888348,44.71626059
13151,Henry,-84.15307775,33.45278905
12051,Hendry,-81.16511547,26.55374425
18031,Decatur,-85.50090226,39.30715055
08019,Clear Creek,-105.6447627,39.68922182
51520,Bristol,-82.1590697,36.61826378
56003,Big Horn,-107.9948912,44.52636084
54065,Morgan,-78.25701555,39.5606152
49023,Juab,-112.7847328,39.70284831
01079,Lawrence,-87.31085381,34.52223687
48369,Parmer,-102.7844494,34.52993922
51103,Lancaster,-76.46151665,37.73239182
31079,Hall,-98.50212614,40.87261328
39009,Athens,-82.0451808,39.3340326
39091,Logan,-83.76526991,40.3883971
39141,Ross,-83.0569591,39.33753008
30097,Sweet Grass,-109.939664,45.813756
36121,Wyoming,-78.2237766,42.70226414
40125,Pottawatomie,-96.94828061,35.20684527
42081,Lycoming,-77.06520269,41.34394419
29159,Pettis,-93.28474912,38.72825898
18069,Huntington,-85.48831237,40.82907594
15007,Kauai,-159.5957496,22.03978487
30055,McCone,-105.7952945,47.64515532
28065,Jefferson Davis,-89.82311087,31.56973198
21103,Henry,-85.11897835,38.44849046
17009,Brown,-90.75018804,39.96180493
17043,DuPage,-88.08563421,41.85173736
21009,Barren,-85.93377067,36.96546022
51017,Bath,-79.74123354,38.05836054
01015,Calhoun,-85.82574705,33.77141549
01121,Talladega,-86.16587666,33.37992421
51131,Northampton,-75.87764606,37.34305358
37057,Davidson,-80.21253309,35.79311799
41069,Wheeler,-120.0273912,44.72584844
37155,Robeson,-79.10352623,34.64028878
42097,Northumberland,-76.70893391,40.85142483
35033,Mora,-104.944561,36.00972846
40027,Cleveland,-97.3267069,35.20346872
42121,Venango,-79.75792032,41.40101962
18065,Henry,-85.39654344,39.93112507
18143,Scott,-85.74696726,38.68627244
20145,Pawnee,-99.23682021,38.18106307
12081,Manatee,-82.31571914,27.47189899
21113,Jessamine,-84.58031888,37.87235886
17017,Cass,-90.24761202,39.97376092
12033,Escambia,-87.36273986,30.66830369
72133,Santa Isabel,-66.38861781,17.99547652
18037,Dubois,-86.87970258,38.36427783
18115,Ohio,-84.96502468,38.94996711
28053,Humphreys,-90.52684783,33.12856998
17063,Grundy,-88.41891328,41.2856038
69120,Tinian,145.6261608,15.00074124
46077,Kingsbury,-97.4913945,44.36956169
55135,Waupaca,-88.96532599,44.47070734
47081,Hickman,-87.47317001,35.80374486
47043,Dickson,-87.35658415,36.14932156
49035,Salt Lake,-111.9241028,40.66728813
51197,Wythe,-81.07803317,36.91686677
54045,Logan,-81.9351906,37.8319353
48333,Mills,-98.59562176,31.49516229
12129,Wakulla,-84.40005301,30.16603091
13213,Murray,-84.74799528,34.78861644
17201,Winnebago,-89.16084223,42.33630888
17007,Boone,-88.82348512,42.32294195
18083,Knox,-87.41778158,38.68954718
19119,Lyon,-96.2102221,43.38111289
21147,McCreary,-84.48377645,36.73699245
21093,Hardin,-85.96366674,37.69820941
01119,Sumter,-88.19904039,32.59104949
02016,Aleutians West,-110.2449123,52.79430361
46051,Grant,-96.76789112,45.17218979
39013,Belmont,-80.98861998,40.01576203
37013,Beaufort,-76.85887749,35.49296573
37113,Macon,-83.42232408,35.15057533
30075,Powder River,-105.6300238,45.39499878
32017,Lincoln,-114.8771351,37.64342469
36009,Cattaraugus,-78.67903202,42.24856064
33015,Rockingham,-71.12556353,42.98749699
36055,Monroe,-77.69595887,43.14694904
34015,Gloucester,-75.14071747,39.71694144
08037,Eagle,-106.6953848,39.62801893
08073,Lincoln,-103.5137335,38.98742236
05037,Cross,-90.77181286,35.29547453
13037,Calhoun,-84.62376804,31.52887387
01085,Lowndes,-86.65002353,32.1550404
28145,Union,-89.00393228,34.49025133
21005,Anderson,-84.99140593,38.00378449
54039,Kanawha,-81.52827161,38.33643035
72135,Toa Alta,-66.2462674,18.36223592
29027,Callaway,-91.92616939,38.83570509
19105,Jones,-91.13139641,42.12118609
16043,Fremont,-111.4821032,44.22898675
20047,Edwards,-99.31204845,37.88763961
48113,Dallas,-96.77788947,32.76665041
06025,Imperial,-115.3657218,33.03935669
06003,Alpine,-119.8206263,38.59721624
11001,District of Columbia,-77.01629654,38.90478149
12075,Levy,-82.74249558,29.31952768
45085,Sumter,-80.38227873,33.91600797
51043,Clarke,-77.99656139,39.11236047
44005,Newport,-71.23906841,41.55667416
53013,Columbia,-117.9078252,46.29796069
49055,Wayne,-110.9033351,38.32442333
53021,Franklin,-118.8984754,46.5350455
26053,Gogebic,-89.69437271,46.40885281
05001,Arkansas,-91.37520643,34.29076839
08013,Boulder,-105.3574574,40.09241482
54021,Gilmer,-80.85664593,38.92492424
34033,Salem,-75.34910669,39.58787069
13193,Macon,-84.04282299,32.35871148
13263,Talbot,-84.53322383,32.69944401
13093,Dooly,-83.79901736,32.15728777
01055,Etowah,-86.03476854,34.04518886
02020,Anchorage,-149.1118883,61.15068906
17001,Adams,-91.18842478,39.98808185
31147,Richardson,-95.71768995,40.12499676
19151,Pocahontas,-94.67862564,42.73420133
17103,Lee,-89.29939757,41.74622905
72033,Catao,-66.13939837,18.44436903
46071,Jackson,-101.6282752,43.69419796
46015,Brule,-99.08125406,43.71816719
48055,Caldwell,-97.61976797,29.83714515
47005,Benton,-88.06869913,36.06961024
53023,Garfield,-117.5446476,46.43130985
27107,Norman,-96.45566228,47.32618622
50021,Rutland,-73.03669897,43.57983752
27129,Renville,-94.94679511,44.72672673
04021,Pinal,-111.34488,32.90415087
06077,San Joaquin,-121.2712102,37.9345275
53073,Whatcom,-121.7209525,48.82595321
51133,Northumberland,-76.41950915,37.8876167
01127,Walker,-87.29727889,33.80316281
01051,Elmore,-86.14884036,32.59724126
37105,Lee,-79.17158398,35.47515626
45027,Clarendon,-80.21662078,33.66542745
38025,Dunn,-102.6182871,47.35663619
41061,Union,-118.0093556,45.31039084
37127,Nash,-77.9861842,35.96771851
51620,Franklin,-76.93848875,36.68306879
48457,Tyler,-94.37649281,30.77118478
51049,Cumberland,-78.24455011,37.51182231
48013,Atascosa,-98.52716292,28.89331115
48133,Eastland,-98.83243566,32.32743996
51037,Charlotte,-78.66167401,37.0117581
47137,Pickett,-85.07476517,36.55818853
40035,Craig,-95.20866115,36.76178038
41031,Jefferson,-121.176431,44.62935891
29041,Chariton,-92.96305582,39.51548794
53071,Walla Walla,-118.4785331,46.22968278
51115,Mathews,-76.34148682,37.43639888
29131,Miller,-92.42809571,38.21438575
51119,Middlesex,-76.56869484,37.62970349
41025,Harney,-118.9679625,43.06361843
51015,Augusta,-79.13408568,38.16483645
54003,Berkeley,-78.0274399,39.46408048
55029,Door,-87.31112969,44.95030522
39173,Wood,-83.62311366,41.36160162
37163,Sampson,-78.37163083,34.99203592
27005,Becker,-95.67483556,46.93523736
18027,Daviess,-87.07197336,38.70229994
29007,Audrain,-91.84163742,39.21595536
23011,Kennebec,-69.76757384,44.40901704
28019,Choctaw,-89.24846009,33.34764715
21137,Lincoln,-84.66076388,37.45485594
26113,Missaukee,-85.09471001,44.33770935
21205,Rowan,-83.42085187,38.19625131
51117,Mecklenburg,-78.3626113,36.68047202
40123,Pontotoc,-96.68450952,34.72795889
37035,Catawba,-81.21481079,35.66260115
21011,Bath,-83.74265272,38.14480167
21013,Bell,-83.67369514,36.73094679
23005,Cumberland,-70.37661287,43.83897334
55037,Florence,-88.39761751,45.8480979
25027,Worcester,-71.90780992,42.35111931
13049,Charlton,-82.13757286,30.7815722
37191,Wayne,-78.00407767,35.36389637
41013,Crook,-120.3567062,44.14229491
36023,Cortland,-76.07049311,42.59514578
30111,Yellowstone,-108.2742553,45.93715306
39157,Tuscarawas,-81.47450488,40.44131431
18159,Tipton,-86.05195096,40.31121117
22093,St. James,-90.79581459,30.02623427
22079,Rapides,-92.53365886,31.19810087
21001,Adair,-85.28062533,37.1039252
08113,San Miguel,-108.405806,38.00399367
72017,Barceloneta,-66.55881898,18.44638293
30107,Wheatland,-109.8444012,46.46630385
37059,Davie,-80.54428142,35.92957297
31137,Phelps,-99.41426701,40.51115428
31047,Dawson,-99.81946635,40.86987625
55133,Waukesha,-88.30430125,43.01833546
13291,Union,-83.99038243,34.83375049
20053,Ellsworth,-98.20501891,38.6967292
36037,Genesee,-78.19407819,43.00056703
27013,Blue Earth,-94.06697737,44.03450234
21019,Boyd,-82.68775539,38.35908957
21027,Breckinridge,-86.42936466,37.7732385
25019,Nantucket,-70.07344074,41.28422779
21007,Ballard,-88.99943791,37.05854425
28029,Copiah,-90.44883293,31.86883689
21169,Metcalfe,-85.62919821,36.99052063
51159,Richmond,-76.7268014,37.94301072
48157,Fort Bend,-95.77093789,29.52747353
21069,Fleming,-83.69658812,38.37035302
28055,Issaquena,-90.98899611,32.74139849
13115,Floyd,-85.21440801,34.26315113
22099,St. Martin,-91.60785079,30.12930997
20069,Gray,-100.4379698,37.73851836
17173,Shelby,-88.80591091,39.39127226
28133,Sunflower,-90.58875506,33.60184158
29053,Cooper,-92.80985416,38.84333073
26155,Shiawassee,-84.14662058,42.95402135
18175,Washington,-86.10543054,38.59978187
27139,Scott,-93.53696693,44.64850008
31181,Webster,-98.50021623,40.17643706
78020,St. John,-64.74657958,18.34029903
48073,Cherokee,-95.16565693,31.83752856
47135,Perry,-87.85894071,35.64313951
47037,Davidson,-86.78502875,36.16932462
48267,Kimble,-99.74856473,30.48678918
45009,Bamberg,-81.05432857,33.21508217
72051,Dorado,-66.27788236,18.43643896
42023,Cameron,-78.20384508,41.43674888
06081,San Mateo,-122.328899,37.42298018
72079,Lajas,-67.03992341,18.01204007
21187,Owen,-84.82790284,38.52025251
04025,Yavapai,-112.5538467,34.59969928
21239,Woodford,-84.74341301,38.04257558
18051,Gibson,-87.58518363,38.31161078
47117,Marshall,-86.76591028,35.46843385
17111,McHenry,-88.45263983,42.32444631
18161,Union,-84.9249309,39.62515829
18043,Floyd,-85.90699249,38.31902045
20035,Cowley,-96.83732848,37.23777562
20075,Hamilton,-101.7915769,37.9991797
24009,Calvert,-76.56882392,38.5437742
26097,Mackinac,-85.07704103,46.07858665
17061,Greene,-90.39051245,39.3563746
31111,Lincoln,-100.7452801,41.04750134
56035,Sublette,-109.9148412,42.76688453
21017,Bourbon,-84.21645396,38.20656118
72031,Carolina,-65.95606154,18.37503034
51127,New Kent,-76.9971687,37.50499104
46119,Sully,-100.131855,44.71542851
55107,Rusk,-91.1333376,45.47489408
09015,Windham,-71.98737539,41.83006633
13055,Chattooga,-85.34522718,34.47504069
13241,Rabun,-83.40264155,34.88165754
17157,Randolph,-89.82565532,38.05214985
16027,Canyon,-116.7092162,43.6251769
18111,Newton,-87.39778904,40.95571121
47129,Morgan,-84.64901358,36.13501561
40045,Ellis,-99.75451143,36.21835085
18165,Vermillion,-87.46414164,39.85409324
08083,Montezuma,-108.5964924,37.33893986
47189,Wilson,-86.29778739,36.15428192
55015,Calumet,-88.21780273,44.0816316
25021,Norfolk,-71.20690516,42.1624614
48321,Matagorda,-96.01140809,28.82108792
42117,Tioga,-77.25438714,41.77283534
47109,McNairy,-88.56332928,35.17583563
45021,Cherokee,-81.62012099,35.04837373
47185,White,-85.45476978,35.92662264
49007,Carbon,-110.5891155,39.64773138
51149,Prince George,-77.22446275,37.18648609
45089,Williamsburg,-79.72785637,33.62020834
48371,Pecos,-102.7234229,30.78076842
46053,Gregory,-99.18590693,43.19247936
19005,Allamakee,-91.37915589,43.28400613
21231,Wayne,-84.8286438,36.80107637
21029,Bullitt,-85.69808753,37.97000785
26033,Chippewa,-84.56284345,46.30032406
40151,Woods,-98.86351819,36.76674112
40133,Seminole,-96.61546183,35.1672074
35027,Lincoln,-105.4585461,33.74510826
38057,Mercer,-101.8317306,47.30905996
35043,Sandoval,-106.8658272,35.68909544
16021,Boundary,-116.4627525,48.766998
18091,LaPorte,-86.74045399,41.5459356
47019,Carter,-82.12769739,36.29228876
47097,Lauderdale,-89.63135139,35.76118851
45003,Aiken,-81.63493042,33.544095
56041,Uinta,-110.5474049,41.28749663
72109,Patillas,-66.01187172,18.03150854
48199,Hardin,-94.3902703,30.33224472
01033,Colbert,-87.80463371,34.70085284
05133,Sevier,-94.24072249,33.9971421
04013,Maricopa,-112.4908888,33.34875974
13145,Harris,-84.9082899,32.73613817
25001,Barnstable,-70.2898624,41.7232979
40017,Canadian,-97.98241218,35.54233821
46009,Bon Homme,-97.88493814,42.98827986
42049,Erie,-80.03257439,41.9921752
35055,Taos,-105.630976,36.57834262
36067,Onondaga,-76.19460186,43.0061269
38085,Sioux,-101.0403323,46.11262812
21055,Crittenden,-88.09694438,37.35257485
37131,Northampton,-77.39657442,36.41780769
27081,Lincoln,-96.26720134,44.4123209
29510,St. Louis,-90.24484413,38.63654694
29005,Atchison,-95.42832663,40.430839
29155,Pemiscot,-89.78539961,36.21131565
16055,Kootenai,-116.7000308,47.6744641
18075,Jay,-85.00574703,40.43780769
18123,Perry,-86.6380062,38.07971276
18147,Spencer,-87.00784468,38.01429111
20071,Greeley,-101.8060294,38.48078179
21145,McCracken,-88.71249008,37.05384925
38067,Pembina,-97.55156514,48.76726978
47045,Dyer,-89.4139363,36.05918296
41003,Benton,-123.428743,44.49161157
31131,Otoe,-96.1350641,40.64856103
51036,Charles City,-77.06179476,37.35669644
19007,Appanoose,-92.86861174,40.74323979
22013,Bienville,-93.05594858,32.34717134
17019,Champaign,-88.19947606,40.13984863
53053,Pierce,-122.1122121,47.02680625
46121,Todd,-100.7186033,43.1933652
51067,Franklin,-79.88106371,36.99189661
53059,Skamania,-121.9148915,46.02280969
04003,Cochise,-109.7510129,31.87959362
05143,Washington,-94.21571712,35.97899668
09005,Litchfield,-73.24526767,41.79242134
22125,West Feliciana,-91.42038292,30.88038848
23015,Lincoln,-69.54198777,44.06333351
25025,Suffolk,-71.07033478,42.33340065
40067,Jefferson,-97.83608709,34.11052408
47051,Franklin,-86.09233522,35.15504791
31127,Nemaha,-95.84990553,40.38784773
29095,Jackson,-94.34603332,39.00926211
35041,Roosevelt,-103.4801987,34.02127232
27011,Big Stone,-96.41134505,45.42651259
34019,Hunterdon,-74.91261058,40.56697742
13159,Jasper,-83.68792053,33.31633785
22015,Bossier,-93.60428557,32.67882745
21065,Estill,-83.96441737,37.6925357
06013,Contra Costa,-121.9281273,37.91933375
35031,McKinley,-108.2616781,35.58040415
16073,Owyhee,-116.1698327,42.58161924
18177,Wayne,-85.00991888,39.86440062
18155,Switzerland,-85.03658909,38.82631081
19139,Muscatine,-91.11279575,41.48388139
19191,Winneshiek,-91.84475831,43.29085957
47027,Clay,-85.5429723,36.55111287
37173,Swain,-83.4921876,35.48677176
28087,Lowndes,-88.4432447,33.47293459
31025,Cass,-96.14069252,40.90976087
37187,Washington,-76.57653423,35.82268131
18125,Pike,-87.2323432,38.39848154
13015,Bartow,-84.84068937,34.23786814
51071,Giles,-80.70422242,37.31404444
51740,Portsmouth,-76.35396761,36.84646209
48387,Red River,-95.04966416,33.62099176
24005,Baltimore,-76.63603021,39.4596552
22081,Red River,-93.33992874,32.09302665
16079,Shoshone,-115.8911361,47.35176251
24015,Cecil,-75.94133759,39.57067423
37079,Greene,-77.67650726,35.48563343
18061,Harrison,-86.11124563,38.19522174
21053,Clinton,-85.13646367,36.7275894
23013,Knox,-69.15278458,44.12441708
38099,Walsh,-97.72134503,48.36930301
29087,Holt,-95.21504754,40.0944922
29129,Mercer,-93.56850616,40.42251333
27069,Kittson,-96.78256113,48.77698427
55003,Ashland,-90.67745058,46.33463725
01063,Greene,-87.95276818,32.853304
53067,Thurston,-122.8330654,46.92672896
38059,Morton,-101.2808428,46.71620349
47065,Hamilton,-85.1644476,35.18133492
47121,Meigs,-84.8129419,35.51294836
47143,Rhea,-84.92418399,35.60911854
24019,Dorchester,-76.02355952,38.46896686
48039,Brazoria,-95.45158629,29.18949785
30031,Gallatin,-111.1703288,45.54097041
35013,Doa Ana,-106.8330858,32.35265229
12093,Okeechobee,-80.88873614,27.3866315
08043,Fremont,-105.4399703,38.47306423
05149,Yell,-93.41105962,35.00270728
55123,Vernon,-90.83463661,43.59402052
38015,Burleigh,-100.4687948,46.97733689
37111,McDowell,-82.04845774,35.68110614
13163,Jefferson,-82.41823729,33.05432827
13289,Twiggs,-83.42729345,32.66724559
19039,Clarke,-93.78516215,41.02892087
22003,Allen,-92.82796914,30.65238675
20065,Graham,-99.88334471,39.34986711
16001,Ada,-116.241035,43.45084054
17159,Richland,-88.08560224,38.71228739
28073,Lamar,-89.50870961,31.20573333
17131,Mercer,-90.74108384,41.20543704
06085,Santa Clara,-121.6951016,37.23169965
51107,Loudoun,-77.63575211,39.09048044
46023,Charles Mix,-98.58785039,43.20792726
46123,Tripp,-99.88408568,43.34592545
37139,Pasquotank,-76.28360001,36.29472462
39087,Lawrence,-82.53675197,38.59849502
37005,Alleghany,-81.1277104,36.49135989
55091,Pepin,-92.00178921,44.58302681
54009,Brooke,-80.57654665,40.27385743
01073,Jefferson,-86.89657084,33.5543433
37067,Forsyth,-80.25626566,36.13057844
31121,Merrick,-98.03760529,41.16916952
45063,Lexington,-81.27229853,33.90217281
38061,Mountrail,-102.3557043,48.20129569
21167,Mercer,-84.87436107,37.81116654
29047,Clay,-94.42122576,39.31045251
18079,Jennings,-85.62737915,38.99757081
72073,Jayuya,-66.58853781,18.20981011
72123,Salinas,-66.25486537,18.00693567
10001,Kent,-75.56844621,39.08639126
55049,Iowa,-90.13523894,43.00020828
30103,Treasure,-107.2718156,46.21135847
31041,Custer,-99.72614484,41.39416503
24027,Howard,-76.93099926,39.25078653
24029,Kent,-76.0404081,39.25416924
46055,Haakon,-101.5397482,44.29463659
24031,Montgomery,-77.20428439,39.13634899
37091,Hertford,-76.98162611,36.35892018
26047,Emmet,-84.89116957,45.51996676
29227,Worth,-94.42191277,40.47867651
35023,Hidalgo,-108.7148057,31.91398466
36003,Allegany,-78.02730689,42.25731952
28059,Jackson,-88.6353787,30.53467952
37061,Duplin,-77.93295681,34.93627171
28025,Clay,-88.78154439,33.65579797
31071,Garfield,-98.99111827,41.91428955
13121,Fulton,-84.46714878,33.79038574
20141,Osborne,-98.76753828,39.3503437
16053,Jerome,-114.2642648,42.68974614
27029,Clearwater,-95.37844018,47.57848837
22083,Richland,-91.76336368,32.41758531
22127,Winn,-92.63657688,31.94438827
17191,Wayne,-88.42586459,38.42955355
54001,Barbour,-80.00360456,39.13281051
47075,Haywood,-89.28418692,35.58313405
51111,Lunenburg,-78.24084587,36.94606214
48449,Titus,-94.96656946,33.21673924
38065,Oliver,-101.3403504,47.115508
51169,Scott,-82.60311478,36.7143081
06111,Ventura,-119.0848457,34.45474678
06095,Solano,-121.9331593,38.27025048
24037,St. Mary's,-76.60613989,38.3016848
45077,Pickens,-82.72522047,34.88795956
45087,Union,-81.61926683,34.68978386
45083,Spartanburg,-81.99110742,34.93148726
56033,Sheridan,-106.8799546,44.79068012
56013,Fremont,-108.6304217,43.04055711
56017,Hot Springs,-108.4422853,43.71897841
27115,Pine,-92.74140502,46.12071071
30023,Deer Lodge,-113.0672423,46.06059035
30093,Silver Bow,-112.6566556,45.90234114
29031,Cape Girardeau,-89.68444987,37.38402006
25013,Hampden,-72.63119338,42.13509064
21079,Garrard,-84.53826255,37.63999075
25023,Plymouth,-70.81296132,41.95331777
45013,Beaufort,-80.73004378,32.3853684
45053,Jasper,-81.03177638,32.43633197
27045,Fillmore,-92.08990525,43.6739576
49011,Davis,-112.1116607,40.99072955
49057,Weber,-111.9127797,41.27005573
37051,Cumberland,-78.82718356,35.04887721
26083,Keweenaw,-88.43593439,47.62662557
05103,Ouachita,-92.88191217,33.59337533
10003,New Castle,-75.64791441,39.58150592
08029,Delta,-107.8629449,38.86135647
08033,Dolores,-108.5173886,37.75208472
13077,Coweta,-84.76342787,33.35346702
17027,Clinton,-89.4229686,38.60632268
48161,Freestone,-96.14897872,31.7044343
21123,Larue,-85.69858421,37.54557718
13233,Polk,-85.18805562,34.00190077
31031,Cherry,-101.1185272,42.54499866
24003,Anne Arundel,-76.60335105,39.0057724
46135,Yankton,-97.39494039,43.00895493
37087,Haywood,-82.98251028,35.55576195
47029,Cocke,-83.12121537,35.92555143
21161,Mason,-83.82396293,38.59510651
49049,Utah,-111.670284,40.11980262
26105,Mason,-86.25017381,43.99535369
21175,Morgan,-83.25778159,37.92214018
54087,Roane,-81.34822568,38.71393058
09007,Middlesex,-72.5354823,41.46358412
37197,Yadkin,-80.66532457,36.1604416
10005,Sussex,-75.38998106,38.66089142
01027,Clay,-85.8607443,33.26966941
37089,Henderson,-82.48021492,35.33655768
13157,Jackson,-83.56602206,34.1338612
37161,Rutherford,-81.92041527,35.4018617
16063,Lincoln,-114.1383193,43.00232711
51141,Patrick,-80.28481637,36.67809987
31089,Holt,-98.78376243,42.45557846
72057,Guayama,-66.13696252,18.00377727
72023,Cabo Rojo,-67.15457364,18.03901469
42067,Juniata,-77.40277415,40.5308105
18089,Lake,-87.38221633,41.41685156
42071,Lancaster,-76.24786695,40.04261494
45019,Charleston,-79.95226654,32.83417041
48015,Austin,-96.27800561,29.88707804
47057,Grainger,-83.51084097,36.2754882
47063,Hamblen,-83.26632471,36.2171435
46033,Custer,-103.4514908,43.67736837
37193,Wilkes,-81.16305367,36.20617699
06093,Siskiyou,-122.5405164,41.59272613
27025,Chisago,-92.90829767,45.5024111
26121,Muskegon,-86.1519783,43.2913812
17075,Iroquois,-87.82452537,40.74732578
18121,Parke,-87.20678147,39.77360728
06087,Santa Cruz,-122.0017742,37.0561908
13141,Hancock,-83.00098883,33.27020552
48271,Kinney,-100.4179055,29.35014052
16019,Bonneville,-111.6147928,43.38792191
13011,Banks,-83.49753835,34.35397657
37177,Tyrrell,-76.20702207,35.81805644
42085,Mercer,-80.25773634,41.30228665
29107,Lafayette,-93.7855705,39.06555761
29113,Lincoln,-90.96009523,39.05829936
42087,Mifflin,-77.6170294,40.61051314
22117,Washington,-90.04035989,30.85339081
42027,Centre,-77.81986792,40.91933775
47073,Hawkins,-82.94554982,36.4410474
47077,Henderson,-88.38771258,35.65381663
42029,Chester,-75.74843926,39.97329798
45033,Dillon,-79.37858369,34.39138915
42031,Clarion,-79.42093979,41.19261355
45039,Fairfield,-81.12125577,34.39533447
21183,Ohio,-86.84842961,37.47818665
05125,Saline,-92.67655329,34.64661779
21193,Perry,-83.22147321,37.24414459
21195,Pike,-82.39537783,37.46909859
21197,Powell,-83.82298076,37.83036747
08079,Mineral,-106.9241901,37.66954135
48273,Kleberg,-97.72430027,27.43132443
06115,Yuba,-121.3508296,39.26930746
20091,Johnson,-94.82256945,38.88370015
13013,Barrow,-83.71288108,33.99268452
16031,Cassia,-113.6013217,42.28381567
51147,Prince Edward,-78.44090565,37.22409267
29127,Marion,-91.62231175,39.8059363
22053,Jefferson Davis,-92.8140461,30.26796744
38029,Emmons,-100.2386194,46.28495441
42093,Montour,-76.65904667,41.02752391
29135,Moniteau,-92.58303239,38.63234724
42095,Northampton,-75.30735363,40.75446063
47089,Jefferson,-83.44652522,36.0513409
41057,Tillamook,-123.7127608,45.46343846
49021,Iron,-113.2894426,37.85935379
30009,Carbon,-109.0283184,45.22736746
44003,Kent,-71.59305645,41.6720081
21201,Robertson,-84.0518799,38.51778393
27053,Hennepin,-93.47715121,45.00479678
47165,Sumner,-86.46074089,36.46938867
21225,Union,-87.94548669,37.65840762
17065,Hamilton,-88.53883373,38.08163641
17067,Hancock,-91.16472529,40.40370799
48365,Panola,-94.30558387,32.16239924
37175,Transylvania,-82.79867801,35.20208661
17099,LaSalle,-88.88623869,41.34406943
48277,Lamar,-95.57108168,33.6672152
51077,Grayson,-81.22507847,36.65661781
12071,Lee,-81.84068841,26.57801557
24033,Prince George's,-76.84739072,38.8299677
32011,Eureka,-116.2694709,39.98327398
22111,Union,-92.3748342,32.83186286
34007,Camden,-74.96012063,39.80401748
37199,Yancey,-82.30812844,35.8984235
05011,Bradley,-92.16229542,33.46613806
50001,Addison,-73.14089327,44.03090072
49005,Cache,-111.743741,41.72255404
48245,Jefferson,-94.16307113,29.88337578
47101,Lewis,-87.49365286,35.52726999
48351,Newton,-93.74533244,30.78564527
13245,Richmond,-82.07386121,33.35950332
13265,Taliaferro,-82.87900052,33.566347
40055,Greer,-99.56059648,34.93429868
40057,Harmon,-99.84630188,34.74409289
13279,Toombs,-82.33096121,32.12156708
12031,Duval,-81.67063889,30.33214142
39093,Lorain,-82.1511144,41.29557931
39115,Morgan,-81.85284727,39.62071306
39131,Pike,-83.06678951,39.07705515
28135,Tallahatchie,-90.17334129,33.95061391
36013,Chautauqua,-79.36664149,42.22817594
46109,Roberts,-96.94614272,45.62977349
46113,Shannon,-102.5516416,43.3357008
29011,Barton,-94.34736796,37.50205562
48045,Briscoe,-101.2084947,34.53026962
29069,Dunklin,-90.09071406,36.2722822
37171,Surry,-80.68725838,36.41459623
42043,Dauphin,-76.77925448,40.41555232
30039,Granite,-113.4401981,46.40415824
31033,Cheyenne,-102.9949509,41.21970871
48255,Karnes,-97.85944813,28.90564205
56001,Albany,-105.7236684,41.65453797
56007,Carbon,-106.9303916,41.69413999
56021,Laramie,-104.6892193,41.30709358
51011,Appomattox,-78.81172877,37.37242345
30037,Golden Valley,-109.1749672,46.38114583
56005,Campbell,-105.5484733,44.24806602
26151,Sanilac,-82.82063341,43.4237632
12069,Lake,-81.71135257,28.76121706
01117,Shelby,-86.66137476,33.26405258
17091,Kankakee,-87.86189197,41.13747976
18163,Vanderburgh,-87.58559945,38.02551429
39049,Franklin,-83.0091231,39.96927249
29021,Buchanan,-94.80618288,39.65989328
29165,Platte,-94.77380125,39.38073683
39061,Hamilton,-84.54309843,39.19557749
30021,Dawson,-104.899515,47.26636057
37009,Ashe,-81.50052459,36.43415234
27167,Wilkin,-96.46820682,46.35705832
38051,McIntosh,-99.4414601,46.11180534
35017,Grant,-108.3823282,32.73885662
30043,Jefferson,-112.0940513,46.14859974
47161,Stewart,-87.83755715,36.50150068
48035,Bosque,-97.63435711,31.90035901
51033,Caroline,-77.34662195,38.02701807
56009,Converse,-105.5077277,42.9722826
16003,Adams,-116.4539483,44.88931492
27075,Lake,-91.44445826,47.64037177
08091,Ouray,-107.7693048,38.15498465
30071,Phillips,-107.9138518,48.25942665
48337,Montague,-97.72439946,33.67539964
49015,Emery,-110.7004925,38.99637448
48029,Bexar,-98.52016013,29.44911665
35021,Harding,-103.820322,35.85799759
36047,Kings,-73.93708255,40.63562226
26041,Delta,-86.92347486,45.91736311
05029,Conway,-92.70098811,35.26227905
51173,Smyth,-81.53692387,36.84393147
05091,Miller,-93.89142003,33.31200171
45059,Laurens,-82.00535135,34.48372258
56011,Crook,-104.5703226,44.58843934
47181,Wayne,-87.78755065,35.24027258
55109,St. Croix,-92.4529513,45.03345626
05121,Randolph,-91.02752205,36.34154412
08107,Routt,-106.9915083,40.48549841
16023,Butte,-113.1719663,43.72266581
05145,White,-91.74548804,35.25612459
49027,Millard,-113.1003083,39.07403971
12121,Suwannee,-82.99147597,30.19562156
48027,Bell,-97.47823134,31.03762665
12123,Taylor,-83.60328684,30.04712958
51101,King William,-77.08804071,37.70635361
48147,Fannin,-96.10669521,33.59387579
35005,Chaves,-104.4668372,33.36323485
39075,Holmes,-81.93067102,40.5614819
48155,Foard,-99.77794293,33.97478308
26089,Leelanau,-85.81220561,44.93943424
38063,Nelson,-98.19212605,47.92171706
45075,Orangeburg,-80.80086358,33.43921301
56039,Teton,-110.5896979,43.93456366
51059,Fairfax,-77.27651017,38.83620791
40107,Okfuskee,-96.3228392,35.46544123
48409,San Patricio,-97.51888305,28.00978811
06043,Mariposa,-119.9053183,37.58143472
39067,Harrison,-81.09149874,40.29356193
35009,Curry,-103.3468992,34.57414777
53019,Ferry,-118.5163244,48.47039666
53065,Stevens,-117.8550713,48.39899156
55009,Brown,-88.00366602,44.452501
37023,Burke,-81.70505869,35.74914733
27097,Morrison,-94.26690418,46.01207437
51177,Spotsylvania,-77.65615344,38.18453467
29149,Oregon,-91.40332146,36.68672248
26103,Marquette,-87.64138782,46.43139896
48167,Galveston,-94.95985195,29.3895025
24041,Talbot,-76.10341962,38.77026257
47139,Polk,-84.52298798,35.11993556
42057,Fulton,-78.11276349,39.92545432
37159,Rowan,-80.52501519,35.64030608
19045,Clinton,-90.53221937,41.89809865
37117,Martin,-77.10604281,35.84087616
28147,Walthall,-90.10601376,31.14823915
27171,Wright,-93.96334763,45.1738141
13293,Upson,-84.29964447,32.88096475
33005,Cheshire,-72.25111371,42.91955278
31155,Saunders,-96.63733984,41.22629371
13313,Whitfield,-84.96674982,34.80650119
49029,Morgan,-111.5734451,41.08889094
50003,Bennington,-73.09291531,43.03531126
29186,Ste. Genevieve,-90.1946731,37.89454581
51179,Stafford,-77.45796206,38.4206167
37027,Caldwell,-81.5469666,35.95288519
31007,Banner,-103.7109624,41.54616353
05053,Grant,-92.42371463,34.29002049
42119,Union,-77.06213019,40.9633376
05055,Greene,-90.55895377,36.11773282
36083,Rensselaer,-73.50952678,42.71103722
37045,Cleveland,-81.55570623,35.33410942
20149,Pottawatomie,-96.34276557,39.37903349
24045,Wicomico,-75.62218411,38.37287229
23023,Sagadahoc,-69.85358192,43.95888365
48089,Colorado,-96.52613796,29.62080587
06023,Humboldt,-123.8755258,40.69940115
30065,Musselshell,-108.3975013,46.49659376
37119,Mecklenburg,-80.83268027,35.24675454
13297,Walton,-83.73367264,33.78121226
48275,Knox,-99.74139253,33.60611596
53017,Douglas,-119.6917069,47.73589576
38097,Traill,-97.16169937,47.45400419
06021,Glenn,-122.3921982,39.59788378
05057,Hempstead,-93.66809039,33.73564268
42123,Warren,-79.2740453,41.81377056
38035,Grand Forks,-97.45708074,47.92166578
31023,Butler,-97.13156172,41.22599383
34039,Union,-74.30721513,40.65928966
05061,Howard,-93.99344494,34.08897983
48097,Cooke,-97.21276751,33.63940669
48105,Crockett,-101.4121116,30.72293884
48109,Culberson,-104.5179143,31.44657839
17139,Moultrie,-88.61929657,39.64136794
19059,Dickinson,-95.15099401,43.37782493
23007,Franklin,-70.44421037,44.97424486
30007,Broadwater,-111.4961534,46.33259261
48363,Palo Pinto,-98.31319001,32.75310985
13307,Webster,-84.55001221,32.04630599
13309,Wheeler,-82.72430717,32.11657577
31027,Cedar,-97.25275919,42.59931244
29161,Phelps,-91.79238502,37.87731447
42003,Allegheny,-79.9817588,40.46880438
06027,Inyo,-117.4113187,36.51173415
05119,Pulaski,-92.31191414,34.76993891
06011,Colusa,-122.2363987,39.17719198
42129,Westmoreland,-79.46732917,40.31090839
31055,Douglas,-96.15494428,41.29533784
20107,Linn,-94.84299061,38.21238797
26003,Alger,-86.60408109,46.40902031
21109,Jackson,-84.00617165,37.41979135
26043,Dickinson,-87.87011459,46.00907005
47149,Rutherford,-86.41692683,35.84260355
47151,Scott,-84.50369331,36.42885328
47153,Sequatchie,-85.4102441,35.37103725
06065,Riverside,-115.9939021,33.74329781
13085,Dawson,-84.17073385,34.44409815
13063,Clayton,-84.35751271,33.54043935
41063,Wallowa,-117.1810198,45.57979758
20013,Brown,-95.56422358,39.8265096
05099,Nevada,-93.30697684,33.66338522
05105,Perry,-92.93150636,34.947251
40009,Beckham,-99.68042577,35.26792649
37141,Pender,-77.90598182,34.52447523
29163,Pike,-91.17165493,39.34397231
48217,Hill,-97.13216715,31.99059876
37129,New Hanover,-77.88474375,34.2322858
17185,Wabash,-87.84368093,38.44634379
24039,Somerset,-75.75887041,38.11381821
21119,Knott,-82.95432904,37.35406197
21125,Laurel,-84.1176508,37.11047425
47159,Smith,-85.95654414,36.25023609
47167,Tipton,-89.75925274,35.49692909
20125,Montgomery,-95.74280727,37.19252895
48119,Delta,-95.67114037,33.38664358
13167,Johnson,-82.66017474,32.70148912
55041,Forest,-88.7705944,45.66756253
05077,Lee,-90.78211015,34.78064921
05117,Prairie,-91.55194184,34.83010091
02013,Aleutians East,-161.9642606,55.36032516
55079,Milwaukee,-87.96698811,43.00700658
36117,Wayne,-77.02965084,43.15652579
34005,Burlington,-74.6680045,39.87782133
06001,Alameda,-121.888612,37.64642367
21075,Fulton,-89.18729157,36.55403726
47105,Loudon,-84.31125324,35.73514674
21095,Harlan,-83.21750489,36.85707442
46103,Pennington,-102.8239659,44.00397449
48007,Aransas,-96.99699873,28.11898396
47021,Cheatham,-87.08648326,36.26140435
21131,Leslie,-83.38100797,37.0939886
21133,Letcher,-82.85515105,37.12125569
26071,Iron,-88.53028044,46.20865908
27023,Chippewa,-95.56698141,45.0223965
02068,Denali,-150.0094238,63.67343339
02070,Dillingham,-158.2141634,59.79832305
02170,Matanuska-Susitna,-149.5691006,62.31571716
55125,Vilas,-89.51508258,46.05275508
37053,Currituck,-76.00390334,36.40311519
29143,New Madrid,-89.65190483,36.59439853
30003,Big Horn,-107.4892228,45.42332459
45091,York,-81.18407852,34.9746458
45065,McCormick,-82.30961363,33.89941841
35003,Catron,-108.4054839,33.91502948
29133,Mississippi,-89.29117001,36.82805484
39117,Morrow,-82.79458938,40.52405935
40021,Cherokee,-94.99948708,35.90664273
45081,Saluda,-81.72732002,34.00631213
37123,Montgomery,-79.90576665,35.3323375
39079,Jackson,-82.61832518,39.01971543
30015,Chouteau,-110.4356833,47.88028152
30077,Powell,-112.936294,46.85654866
36039,Greene,-74.12279549,42.27638026
45073,Oconee,-83.06576373,34.75329772
48423,Smith,-95.26908279,32.37521162
02282,Yakutat,-140.349186,59.88824845
48377,Presidio,-104.2408125,29.99962168
34041,Warren,-74.99647914,40.85746195
31065,Furnas,-99.91249504,40.17646227
40007,Beaver,-100.4765456,36.74966893
27089,Marshall,-96.3692954,48.35830232
42005,Armstrong,-79.46505466,40.81298372
42035,Clinton,-77.63798759,41.23402092
18073,Jasper,-87.11611118,41.02296853
13095,Dougherty,-84.21604918,31.53329476
21199,Pulaski,-84.57709045,37.10380837
23019,Penobscot,-68.64952115,45.40038149
22069,Natchitoches,-93.09649471,31.72373065
29175,Randolph,-92.49714212,39.44009232
40013,Bryan,-96.26246372,33.96278604
36115,Washington,-73.430748,43.31320642
16025,Camas,-114.8053772,43.46356926
49051,Wasatch,-111.169609,40.33064897
27163,Washington,-92.88374367,45.03911139
05147,Woodruff,-91.24302721,35.18620495
13269,Taylor,-84.25102911,32.55610793
13067,Cobb,-84.57652963,33.94183776
08101,Pueblo,-104.5124892,38.17377693
72055,Gunica,-66.91907543,17.98089603
18077,Jefferson,-85.43830308,38.78558559
18149,Starke,-86.6477887,41.28077022
27027,Clay,-96.49066248,46.89214202
20113,McPherson,-97.64761598,38.39187087
16067,Minidoka,-113.6374976,42.85441649
40089,McCurtain,-94.77145458,34.1162239
39105,Meigs,-82.02295352,39.08233336
01065,Hale,-87.62930576,32.7625948
48499,Wood,-95.38204393,32.78643978
05017,Chicot,-91.29365079,33.2673446
05063,Independence,-91.56991638,35.74143554
48427,Starr,-98.73826312,26.56223662
54037,Jefferson,-77.86242458,39.30849565
51035,Carroll,-80.73317673,36.73130704
53051,Pend Oreille,-117.2738324,48.53235595
13251,Screven,-81.61169117,32.75107817
36033,Franklin,-74.30395769,44.59274379
36051,Livingston,-77.77517835,42.72855751
72147,Vieques,-65.43923326,18.12244435
48249,Jim Wells,-98.08997801,27.73123346
46041,Dewey,-100.8716993,45.15658384
46111,Sanborn,-98.09105658,44.02345807
54099,Wayne,-82.42685819,38.14585251
51027,Buchanan,-82.03580207,37.26641332
06045,Mendocino,-123.3914743,39.44027921
22087,St. Bernard,-89.53768188,29.8750922
22101,St. Mary,-91.44469375,29.70500764
45031,Darlington,-79.95766082,34.33234414
45079,Richland,-80.90384361,34.02226754
41071,Yamhill,-123.3078799,45.23269019
35053,Socorro,-106.9307263,34.00682919
22095,St. John the Baptist,-90.47063317,30.12694792
47119,Maury,-87.0771147,35.6177569
48299,Llano,-98.68429358,30.70581617
51061,Fauquier,-77.80950815,38.7387071
48309,McLennan,-97.20199931,31.5524976
53037,Kittitas,-120.679712,47.12448572
54057,Mineral,-78.94327353,39.41464251
54059,Mingo,-82.13519084,37.72729194
54109,Wyoming,-81.54940333,37.60951977
01007,Bibb,-87.12681433,32.99837607
01039,Covington,-86.45142629,31.24861005
06059,Orange,-117.760976,33.70311134
09003,Hartford,-72.73301048,41.80669859
20129,Morton,-101.7992367,37.19140392
21003,Allen,-86.19069857,36.75097491
15001,Hawaii,-155.5211676,19.60123507
22009,Avoyelles,-92.001673,31.07634786
40075,Kiowa,-98.98054865,34.91625162
18009,Blackford,-85.32478758,40.47378705
72121,Sabana Grande,-66.94446564,18.08307024
18055,Greene,-86.96223202,39.03630547
05093,Mississippi,-90.05430077,35.76420127
12035,Flagler,-81.31358003,29.46163468
12039,Gadsden,-84.61383904,30.57930999
12053,Hernando,-82.42535431,28.55404893
12133,Washington,-85.66575949,30.61054912
28143,Tunica,-90.37532903,34.65198616
30085,Roosevelt,-105.0162772,48.29447097
20021,Cherokee,-94.84624572,37.16921917
24047,Worcester,-75.33389427,38.212837
25007,Dukes,-70.65382633,41.39790643
46089,McPherson,-99.221197,45.7662597
45069,Marlboro,-79.67845191,34.60180925
40059,Harper,-99.66696611,36.78871253
09013,Tolland,-72.33642171,41.85510643
20169,Saline,-97.65012272,38.78394989
47039,Decatur,-88.10830091,35.60350601
48415,Scurry,-100.9162656,32.74614567
53043,Lincoln,-118.4186556,47.57605403
51075,Goochland,-77.91594304,37.72200089
51135,Nottoway,-78.05127364,37.14201365
48067,Cass,-94.34317524,33.07772099
39147,Seneca,-83.12759613,41.12378254
12065,Jefferson,-83.89500601,30.43779668
41009,Columbia,-123.0888664,45.94376691
53035,Kitsap,-122.6734022,47.61342417
12127,Volusia,-81.18197434,29.05852431
12131,Walton,-86.17009489,30.64341925
53069,Wahkiakum,-123.4247601,46.292422
30105,Valley,-106.6682222,48.3648329
54031,Hardy,-78.85797558,39.00759684
47059,Greene,-82.84564638,36.17587226
37143,Perquimans,-76.4395049,36.20508496
35059,Union,-103.4710696,36.48166105
32003,Clark,-115.0146087,36.21511541
01049,DeKalb,-85.80378574,34.46023769
01083,Limestone,-86.98207203,34.81013487
08075,Logan,-103.1101132,40.72463929
12009,Brevard,-80.73218698,28.29324349
45045,Greenville,-82.37063974,34.89387815
13087,Decatur,-84.5795682,30.87807864
13205,Mitchell,-84.19466894,31.22513235
13235,Pulaski,-83.47580638,32.23213302
28157,Wilkinson,-91.3114768,31.16072415
28013,Calhoun,-89.33648515,33.9364711
28021,Claiborne,-90.91182829,31.9736924
54027,Hampshire,-78.61389875,39.31712105
47123,Monroe,-84.25271451,35.44293343
30061,Mineral,-114.9981923,47.1472918
54055,Mercer,-81.11147554,37.40564762
08051,Gunnison,-107.0316959,38.66684745
08053,Hinsdale,-107.3003579,37.82131615
23025,Somerset,-69.95882156,45.51360259
06051,Mono,-118.8872447,37.93940061
50019,Orleans,-72.24360335,44.82900254
54063,Monroe,-80.55052779,37.5604155
47099,Lawrence,-87.39523632,35.21729152
28041,Greene,-88.63921416,31.21420839
28047,Harrison,-89.11140872,30.50439082
54067,Nicholas,-80.79999513,38.2918799
72083,Las Maras,-66.98385766,18.2371973
72085,Las Piedras,-65.86959716,18.18839957
54079,Putnam,-81.90915525,38.5085024
53033,King,-121.8063614,47.49034831
53029,Island,-122.5493921,48.16376089
48361,Orange,-93.89437408,30.12099964
51193,Westmoreland,-76.80178124,38.11166934
51005,Alleghany,-80.00761323,37.78778327
49053,Washington,-113.5045338,37.28047916
38093,Stutsman,-98.95894925,46.97927215
34013,Essex,-74.24718209,40.78746195
35049,Santa Fe,-105.9759986,35.50670942
13033,Burke,-82.00066679,33.0611801
46083,Lincoln,-96.7217084,43.27884092
47155,Sevier,-83.52376973,35.78475751
01017,Chambers,-85.39168915,32.91366622
19065,Fayette,-91.84419994,42.8627134
51001,Accomack,-75.63628772,37.76647217
48289,Leon,-95.9957025,31.29628413
17113,McLean,-88.84769482,40.49061752
16007,Bear Lake,-111.3294847,42.28476453
13031,Bulloch,-81.74304725,32.39689006
32001,Churchill,-118.3362581,39.58048345
02090,Fairbanks North Star,-146.5623662,64.8083752
40101,Muskogee,-95.37949187,35.61612948
40047,Garfield,-97.78263254,36.3791609
13165,Jenkins,-81.96350449,32.79247176
21217,Taylor,-85.32791474,37.36660665
28127,Simpson,-89.9199315,31.9133629
17143,Peoria,-89.75986508,40.78797055
37101,Johnston,-78.36537336,35.51761602
19181,Warren,-93.56121354,41.33431116
48287,Lee,-96.96605425,30.31077667
30063,Missoula,-113.9237814,47.03651185
06107,Tulare,-118.8004216,36.22081997
51105,Lee,-83.12815503,36.70548431
06075,San Francisco,-122.4396708,37.75668116
08077,Mesa,-108.4664844,39.01825229
06039,Madera,-119.7624357,37.21825802
36103,Suffolk,-72.84423227,40.87024178
27071,Koochiching,-93.78362729,48.24510754
46075,Jones,-100.6897488,43.96077423
51019,Bedford,-79.52391814,37.31502696
50023,Washington,-72.61502314,44.27309445
51047,Culpeper,-77.95541958,38.48620048
48043,Brewster,-103.2522656,29.81174561
53055,San Juan,-122.9534631,48.57856326
06063,Plumas,-120.8382348,40.00422172
13103,Effingham,-81.34134143,32.3672031
28027,Coahoma,-90.60273114,34.22906962
19111,Lee,-91.47949968,40.64219925
55051,Iron,-90.24265966,46.26247657
54083,Randolph,-79.87549565,38.77500824
51085,Hanover,-77.49131526,37.76033617
39167,Washington,-81.49547648,39.45557887
53077,Yakima,-120.7387387,46.45687521
53049,Pacific,-123.7057228,46.55547971
16013,Blaine,-113.980642,43.41242641
48479,Webb,-99.33173804,27.76103224
06015,Del Norte,-123.8971513,41.74323775
16069,Nez Perce,-116.7498104,46.32729495
27077,Lake of the Woods,-94.90489792,48.77043756
48095,Concho,-99.86428507,31.32686635
01019,Cherokee,-85.60387066,34.17588713
08021,Conejos,-106.1911108,37.20059578
17151,Pope,-88.56128333,37.41325351
19053,Decatur,-93.78630885,40.73762219
21039,Carlisle,-88.97055515,36.85297172
21091,Hancock,-86.77804483,37.84153525
51069,Frederick,-78.26241473,39.2045848
05041,Desha,-91.2539449,33.83346926
51195,Wise,-82.62118772,36.97556152
22065,Madison,-91.24181996,32.36512426
27135,Roseau,-95.81112475,48.77485638
55013,Burnett,-92.36769812,45.86286431
22115,Vernon,-93.18373375,31.10800615
22031,De Soto,-93.73783029,32.05510725
24017,Charles,-76.9921999,38.50706766
46063,Harding,-103.4943846,45.58027156
41059,Umatilla,-118.736681,45.59148273
28151,Washington,-90.94787195,33.28374517
04009,Graham,-109.8875198,32.93295414
40065,Jackson,-99.41545292,34.58800041
08117,Summit,-106.1163363,39.63420352
36031,Essex,-73.77248171,44.11702035
55043,Grant,-90.70630534,42.86757481
22035,East Carroll,-91.2350757,32.73239582
41029,Jackson,-122.728377,42.43216537
38001,Adams,-102.5285391,46.09690164
46019,Butte,-103.507491,44.905694
47091,Johnson,-81.85180572,36.45484107
47163,Sullivan,-82.30419555,36.51291546
50017,Orange,-72.37674987,44.00552167
53009,Clallam,-123.9277111,48.04911666
53005,Benton,-119.5113335,46.23976031
31091,Hooker,-101.1354293,41.91586243
40131,Rogers,-95.60476511,36.37196654
51145,Powhatan,-77.915315,37.55029696
51760,Richmond,-77.47493293,37.53041663
53025,Grant,-119.4513964,47.20582642
53041,Lewis,-122.3933441,46.57770709
48347,Nacogdoches,-94.61593169,31.6162358
36099,Seneca,-76.82362358,42.78068586
39161,Van Wert,-84.58607604,40.8555416
13045,Carroll,-85.07980892,33.58246933
12097,Osceola,-81.14924253,28.06245875
51073,Gloucester,-76.54142204,37.41403941
13059,Clarke,-83.36755873,33.95097841
51083,Halifax,-78.93659955,36.76689258
13061,Clay,-84.97811756,31.62573219
08111,San Juan,-107.6759098,37.7637698
48407,San Jacinto,-95.1671992,30.57936685
66010,Guam,144.7724429,13.44160435
06067,Sacramento,-121.3445212,38.44881725
01125,Tuscaloosa,-87.52558359,33.28952146
42125,Washington,-80.24855447,40.18935898
45055,Kershaw,-80.5903514,34.33859234
20161,Riley,-96.7350396,39.29629774
16011,Bingham,-112.3976535,43.21643996
31021,Burt,-96.32857388,41.85154682
55001,Adams,-89.77038616,43.96955395
04019,Pima,-111.7896381,32.09723099
23021,Piscataquis,-69.28442666,45.83789196
20171,Scott,-100.9066618,38.48220778
34009,Cape May,-74.80053334,39.14901203
72107,Orocovis,-66.4354442,18.21446774
48469,Victoria,-96.97135956,28.7960712
48293,Limestone,-96.58095444,31.5454767
54081,Raleigh,-81.24873953,37.77126746
48121,Denton,-97.11685878,33.20528167
19149,Plymouth,-96.21424951,42.73735704
13073,Columbia,-82.26371951,33.54404762
08115,Sedgwick,-102.3519638,40.87598057
19157,Poweshiek,-92.53097077,41.68657418
19129,Mills,-95.62136125,41.03348848
13091,Dodge,-83.16860598,32.17208946
54053,Mason,-82.02651429,38.7698088
37075,Graham,-83.83311406,35.35024285
01131,Wilcox,-87.30786547,31.98928301
01099,Monroe,-87.36529615,31.57107175
42051,Fayette,-79.64746996,39.91984935
30011,Carter,-104.5359622,45.51700775
20179,Sheridan,-100.4418259,39.35018161
20201,Washington,-97.08751558,39.78417855
55031,Douglas,-91.91618868,46.43292074
22021,Caldwell,-92.11667519,32.09226466
06097,Sonoma,-122.8872965,38.52842052
51041,Chesterfield,-77.58654268,37.37880418
51139,Page,-78.48428212,38.61983485
48401,Rusk,-94.76183346,32.10819843
47035,Cumberland,-84.9986148,35.95070017
51161,Roanoke,-80.067514,37.26938285
48357,Ochiltree,-100.8158413,36.27830534
19167,Sioux,-96.17809424,43.08294203
48083,Coleman,-99.45287706,31.77319682
08085,Montrose,-108.2688129,38.4024194
48403,Sabine,-93.85288661,31.34269549
12105,Polk,-81.69711072,27.94872638
13099,Early,-84.90423978,31.32317406
51155,Pulaski,-80.71348404,37.0632927
54073,Pleasants,-81.1606194,39.37099538
01129,Washington,-88.20819419,31.40759248
51171,Shenandoah,-78.57113544,38.85827071
28043,Grenada,-89.80171673,33.76997916
22037,East Feliciana,-91.04553925,30.8451603
48215,Hidalgo,-98.18144326,26.39667226
19043,Clayton,-91.34106377,42.84452651
27157,Wabasha,-92.23023021,44.28428259
22045,Iberia,-91.73103405,29.89484111
47171,Unicoi,-82.43228458,36.11077416
37167,Stanly,-80.25088954,35.31173842
51185,Tazewell,-81.56046571,37.12490124
05073,Lafayette,-93.60684679,33.24091819
08123,Weld,-104.3930144,40.55487277
48447,Throckmorton,-99.21226795,33.17751417
39153,Summit,-81.53219101,41.12587569
48451,Tom Green,-100.4624522,31.40455473
17069,Hardin,-88.26669526,37.51807977
13187,Lumpkin,-84.00327535,34.57241644
13147,Hart,-82.96402556,34.35058893
48453,Travis,-97.78169164,30.33471479
29045,Clark,-91.73823977,40.41027674
29197,Schuyler,-92.5207783,40.47023216
30019,Daniels,-105.5486488,48.78377804
30079,Prairie,-105.3780231,46.86049013
54107,Wood,-81.51490057,39.21127634
54041,Lewis,-80.50213826,38.99603963
12007,Bradford,-82.16822073,29.94967764
51175,Southampton,-77.10566044,36.72019409
29013,Bates,-94.34015625,38.25742352
22047,Iberville,-91.3485086,30.25819586
17015,Carroll,-89.93380816,42.06794659
19061,Dubuque,-90.88262627,42.46858503
19189,Winnebago,-93.73407175,43.3775066
12037,Franklin,-84.82018866,29.8613762
12085,Martin,-80.43133534,27.07737178
08007,Archuleta,-107.0481757,37.19365584
13027,Brooks,-83.57966245,30.84191162
13127,Glynn,-81.53985797,31.23071711
05013,Calhoun,-92.50253376,33.55786388
05039,Dallas,-92.65420664,33.96953994
13153,Houston,-83.66625831,32.45919716
12043,Glades,-81.1889838,26.95642237
39175,Wyandot,-83.3042663,40.84236699
13181,Lincoln,-82.451183,33.79324552
48465,Val Verde,-101.1521556,29.89249412
12057,Hillsborough,-82.30867294,27.92948052
39051,Fulton,-84.12943991,41.60183312
12023,Columbia,-82.62162029,30.22445638
72001,Adjuntas,-66.75351639,18.1796595
72019,Barranquitas,-66.31070199,18.20096897
72021,Bayamn,-66.16878808,18.34837659
54005,Boone,-81.71114668,38.02264875
54035,Jackson,-81.674543,38.83443006
72037,Ceiba,-65.65638154,18.25141544
21163,Meade,-86.21698223,37.96966338
21059,Daviess,-87.08762263,37.73176143
24023,Garrett,-79.27376451,39.52849306
46105,Perkins,-102.4744037,45.49024355
39155,Trumbull,-80.76110735,41.31734436
12001,Alachua,-82.35823348,29.67497355
05083,Logan,-93.71630518,35.21550403
53003,Asotin,-117.2027907,46.19177089
56015,Goshen,-104.353338,42.08772579
48485,Wichita,-98.7035838,33.98806865
01035,Conecuh,-86.9938237,31.42899352
13207,Monroe,-83.91905929,33.0139317
39059,Guernsey,-81.49400106,40.05191963
13219,Oconee,-83.43706988,33.83506881
13221,Oglethorpe,-83.08144741,33.88064398
39017,Butler,-84.57607723,39.43897921
12086,Miami-Dade,-80.55914415,25.61511557
48503,Young,-98.68790885,33.17659707
13319,Wilkinson,-83.17090856,32.80234579
72043,Coamo,-66.36025819,18.09702641
72049,Culebra,-65.28334116,18.31378498
28091,Marion,-89.8225233,31.23086459
50005,Caledonia,-72.10243367,44.46487758
54023,Grant,-79.19584305,39.10496268
54093,Tucker,-79.56567428,39.11375036
55101,Racine,-88.06111861,42.74731284
30073,Pondera,-112.2266404,48.22793502
47147,Robertson,-86.87047841,36.52536378
47013,Campbell,-84.14937651,36.40334413
35039,Rio Arriba,-106.6929637,36.50984697
36059,Nassau,-73.58622623,40.73761782
36075,Oswego,-76.14177407,43.42718293
09011,New London,-72.10232387,41.48708483
13259,Stewart,-84.83395276,32.07839601
16071,Oneida,-112.5395749,42.19490877
19195,Worth,-93.26085274,43.37747964
20131,Nemaha,-96.01393095,39.78343169
20103,Leavenworth,-95.03795118,39.19957457
48505,Zapata,-99.16858655,27.00076857
39035,Cuyahoga,-81.6587538,41.42426021
48239,Jackson,-96.5775562,28.95369067
37073,Gates,-76.70046305,36.44475497
29035,Carter,-90.96231959,36.94111292
06113,Yolo,-121.9015118,38.68648941
51199,York,-76.56191748,37.24271166
36079,Putnam,-73.74940843,41.42650368
31173,Thurston,-96.54400362,42.15819496
51820,Waynesboro,-78.90109101,38.06830271
55045,Green,-89.60216504,42.67994609
48491,Williamson,-97.60120361,30.64812769
35001,Bernalillo,-106.6705759,35.05121905
72129,San Lorenzo,-65.97552597,18.14792462
19127,Marshall,-92.9990819,42.03586837
72127,San Juan,-66.06170394,18.39080346
19131,Mitchell,-92.78887576,43.35639379
17057,Fulton,-90.20749434,40.47248529
36063,Niagara,-78.7453209,43.20013175
05079,Lincoln,-91.73333878,33.95753882
13007,Baker,-84.44486551,31.32631349
01101,Montgomery,-86.20787706,32.22089414
50007,Chittenden,-73.08101275,44.46109238
55093,Pierce,-92.42212486,44.71909741
21135,Lewis,-83.37804652,38.53155019
21047,Christian,-87.49033769,36.89391023
22119,Webster,-93.33431354,32.71375647
24021,Frederick,-77.3978074,39.4720692
26029,Charlevoix,-85.12921505,45.30562797
55011,Buffalo,-91.75475095,44.38005523
36089,St. Lawrence,-75.06907698,44.49647794
26141,Presque Isle,-83.91721501,45.34035915
06055,Napa,-122.3306328,38.5065458
05089,Marion,-92.68397295,36.26842934
16029,Caribou,-111.5621762,42.77049766
13271,Telfair,-82.93880265,31.92997221
12047,Hamilton,-82.94763284,30.49612932
30109,Wibaux,-104.2490289,46.96556514
13229,Pierce,-82.2134274,31.35837358
45041,Florence,-79.70224581,34.02447241
32029,Storey,-119.5289865,39.44660847
41005,Clackamas,-122.2205544,45.18820387
37125,Moore,-79.48151986,35.31080558
42065,Jefferson,-78.99967226,41.12829657
40049,Garvin,-97.30937006,34.7044021
05015,Carroll,-93.53832319,36.34107901
21107,Hopkins,-87.54131507,37.30862563
29123,Madison,-90.34465099,37.47823462
20017,Chase,-96.59423335,38.30203945
25009,Essex,-70.9515844,42.67174524
48057,Calhoun,-96.60474134,28.50349599
46011,Brookings,-96.79064836,44.36981684
48443,Terrell,-102.0764353,30.22490816
08031,Denver,-104.8760248,39.76129114
22067,Morehouse,-91.80211171,32.82009241
34027,Morris,-74.54440839,40.86163004
22071,Orleans,-89.92833674,30.06918821
40033,Cotton,-98.37225719,34.2900592
29065,Dent,-91.50772249,37.60643508
41051,Multnomah,-122.4157429,45.54693681
37019,Brunswick,-78.23791614,34.07037851
46093,Meade,-102.7166458,44.56667531
37083,Halifax,-77.65158415,36.25737352
13075,Cook,-83.43069759,31.15408665
27143,Sibley,-94.23165958,44.5793954
27061,Itasca,-93.63162349,47.50907819
21207,Russell,-85.05838705,36.99115809
28125,Sharkey,-90.81343618,32.88000015
29029,Camden,-92.76600464,38.02703414
21099,Hart,-85.88446619,37.29970852
21025,Breathitt,-83.32358216,37.5214728
26065,Ingham,-84.37346607,42.59737278
21203,Rockcastle,-84.31621513,37.36491193
45029,Colleton,-80.66691164,32.86353032
45043,Georgetown,-79.33242281,33.43337482
37033,Caswell,-79.33355984,36.39327555
37049,Craven,-77.09255683,35.12343918
40113,Osage,-96.3983805,36.62910128
08027,Custer,-105.3670379,38.10882281
22073,Ouachita,-92.15486108,32.47822702
29153,Ozark,-92.44469447,36.64922253
08005,Arapahoe,-104.3385011,39.649919
29185,St. Clair,-93.77593289,38.03729132
30047,Lake,-114.0894823,47.64593461
48475,Ward,-103.1024815,31.50920785
30087,Rosebud,-106.7307531,46.22979285
13211,Morgan,-83.49227858,33.5909479
42101,Philadelphia,-75.13324284,40.00806441
38005,Benson,-99.36573478,48.06933808
47115,Marion,-85.62192494,35.1294263
20005,Atchison,-95.31456305,39.53158751
26031,Cheboygan,-84.50065611,45.44701265
21127,Lawrence,-82.73464321,38.06766833
27099,Mower,-92.75235164,43.67138759
27065,Kanabec,-93.29290464,45.94534057
29083,Henry,-93.7928174,38.38506942
31145,Red Willow,-100.477247,40.17604429
26069,Iosco,-83.63669002,44.35578542
31043,Dakota,-96.56465437,42.39108493
69100,Rota,145.2094218,14.15511852
72077,Juncos,-65.90991264,18.22462653
40139,Texas,-101.4901113,36.74789073
05081,Little River,-94.2339787,33.70228691
31169,Thayer,-97.59506372,40.17621044
31051,Dixon,-96.86826909,42.49349461
29111,Lewis,-91.72178943,40.09673548
36085,Richmond,-74.15390987,40.58183643
34003,Bergen,-74.07441147,40.96008351
08061,Kiowa,-102.7389041,38.43263854
48487,Wilbarger,-99.24098891,34.08084256
36011,Cayuga,-76.55468471,42.91811235
08089,Otero,-103.7166632,37.90245342
48261,Kenedy,-97.69810806,26.92975017
40135,Sequoyah,-94.75507825,35.49549888
26063,Huron,-83.03116796,43.83293286
37145,Person,-78.9715773,36.38999755
18001,Adams,-84.93658249,40.7457744
47173,Union,-83.83725225,36.28814616
17183,Vermilion,-87.73292603,40.18371674
48181,Grayson,-96.67774905,33.62702927
08099,Prowers,-102.3932762,37.95519022
46057,Hamlin,-97.18829593,44.67385954
49041,Sevier,-111.8045988,38.74769427
51007,Amelia,-77.9752747,37.33550025
51660,Harrisonburg,-78.87397667,38.43833151
48395,Robertson,-96.51322902,31.02665136
40119,Payne,-96.97542338,36.07716359
54097,Upshur,-80.23353247,38.8978057
29201,Scott,-89.56865798,37.05301351
36025,Delaware,-74.96687059,42.19791446
29171,Putnam,-93.01666575,40.47877624
30067,Park,-110.5249953,45.48913245
28153,Wayne,-88.69588404,31.64077954
34017,Hudson,-74.07753388,40.73476975
13305,Wayne,-81.91710568,31.55172562
08093,Park,-105.7172304,39.11969049
41011,Coos,-124.0595871,43.17396579
48417,Shackelford,-99.35401337,32.73587756
48259,Kendall,-98.7114161,29.94473189
05009,Boone,-93.09137415,36.30874792
48257,Kaufman,-96.2877972,32.59905385
48315,Marion,-94.3574341,32.79813996
05007,Benton,-94.25598718,36.33873798
34029,Ocean,-74.28147189,39.88494891
22063,Livingston,-90.72765311,30.44023061
01001,Autauga,-86.64289976,32.53514228
01005,Barbour,-85.39106787,31.87009042
26007,Alpena,-83.62606894,45.03457851
26119,Montmorency,-84.12740152,45.02758285
32009,Esmeralda,-117.632191,37.78456446
56043,Washakie,-107.6823145,43.90437841
72035,Cayey,-66.14868913,18.10378828
48207,Haskell,-99.73037359,33.17823584
21219,Todd,-87.17903216,36.8358203
04011,Greenlee,-109.2401561,33.21537146
12115,Sarasota,-82.33141981,27.18432942
17033,Crawford,-87.75932466,39.00382453
16083,Twin Falls,-114.6681729,42.35608428
16041,Franklin,-111.8131009,42.18121994
18151,Steuben,-85.00106921,41.64408329
06029,Kern,-118.72959,35.34292819
05025,Cleveland,-92.18489948,33.89823609
51181,Surry,-76.90027517,37.10963661
51191,Washington,-81.95959909,36.72455999
49047,Uintah,-109.517996,40.12501568
48419,Shelby,-94.14557404,31.79223785
31117,McPherson,-101.0603939,41.56796544
48183,Gregg,-94.81675582,32.4801034
37043,Clay,-83.75018218,35.05771746
05033,Crawford,-94.24296995,35.588841
05047,Franklin,-93.89070916,35.51229968
36077,Otsego,-75.03243898,42.63374775
42089,Monroe,-75.33930212,41.05812363
36041,Hamilton,-74.49745908,43.66134129
48459,Upshur,-94.94114818,32.73670474
26163,Wayne,-83.28221321,42.28172038
26099,Macomb,-82.93255517,42.69584067
20165,Rush,-99.30863983,38.52275276
72097,Mayagez,-67.33290558,18.18018788
20183,Smith,-98.78566877,39.78517466
60010,Eastern,-170.657123,-14.27429395
72131,San Sebastin,-66.97161064,18.32854209
17089,Kane,-88.42861217,41.93895003
19133,Monona,-95.95997093,42.05236881
18167,Vigo,-87.38969715,39.43073114
19155,Pottawattamie,-95.54290277,41.33661346
21111,Jefferson,-85.65772828,38.18834895
21023,Bracken,-84.08972896,38.68873502
37147,Pitt,-77.37489067,35.59325583
39011,Auglaize,-84.22168058,40.56085701
27001,Aitkin,-93.4156134,46.60787445
40143,Tulsa,-95.94143178,36.12121947
13019,Berrien,-83.22972091,31.27569067
29179,Reynolds,-90.96899002,37.36244864
22001,Acadia,-92.41163568,30.29064732
22025,Catahoula,-91.84692484,31.66623485
